SALE TYPE,SOLD DATE,PROPERTY TYPE,ADDRESS,CITY,STATE OR PROVINCE,ZIP OR POSTAL CODE,PRICE,BEDS,BATHS,LOCATION,SQUARE FEET,LOT SIZE,YEAR BUILT,DAYS ON MARKET,$/SQUARE FEET,HOA/MONTH,STATUS,NEXT OPEN HOUSE START TIME,NEXT OPEN HOUSE END TIME,URL (SEE http://www.redfin.com/buy-a-home/comparative-market-analysis FOR INFO ON PRICING),SOURCE,MLS#,FAVORITE,INTERESTED,LATITUDE,LONGITUDE
PAST SALE,June-7-2019,Single Family Residential,3901 Via Pavion,Palos Verdes Estates,CA,90274,1335000,3,2.25,164 - Valmonte,1847,7263,1954,232,723,,Sold,,,http://www.redfin.com/CA/Palos-Verdes-Estates/3901-Via-Pavion-90274/home/7722612,CRMLS,SB19057948,N,Y,33.7979671,-118.364571
PAST SALE,September-20-2018,Single Family Residential,2115 Via Visalia,Palos Verdes Estates,CA,90274,1450000,3,2.0,162 - Monte Malaga,2000,8630,1962,492,725,,Sold,,,http://www.redfin.com/CA/Palos-Verdes-Estates/2115-Via-Visalia-90274/home/7727056,CRMLS,PV18145960,N,Y,33.784417,-118.3897694
PAST SALE,November-22-2019,Single Family Residential,2615 Via Campesina,Palos Verdes Estates,CA,90274,1535000,3,2.0,163 - Malaga Cove,1869,9262,1958,64,821,,Sold,,,http://www.redfin.com/CA/Palos-Verdes-Estates/2615-Via-Campesina-90274/home/7723501,CRMLS,PV19223435,N,Y,33.7996755,-118.3855927
PAST SALE,October-22-2019,Single Family Residential,1716 Via Boronada,Palos Verdes Estates,CA,90274,1758100,3,3.0,160 - Lunada Bay/Margate,3233,10991,1965,95,544,,Sold,,,http://www.redfin.com/CA/Palos-Verdes-Estates/1716-Via-Boronada-90274/home/7724474,CRMLS,SB19060046,N,Y,33.7814916,-118.4129842
PAST SALE,September-11-2019,Single Family Residential,704 Via Horcada,Palos Verdes Estates,CA,90274,2270000,3,2.25,163 - Malaga Cove,2616,17981,1956,136,868,,Sold,,,http://www.redfin.com/CA/Palos-Verdes-Estates/704-Via-Horcada-90274/home/7723823,CRMLS,PV19038129,N,Y,33.7971276,-118.4050143
PAST SALE,September-5-2018,Single Family Residential,2639 Via Carrillo,Palos Verdes Estates,CA,90274,1625000,3,1.75,160 - Lunada Bay/Margate,2130,8321,1955,507,763,,Sold,,,http://www.redfin.com/CA/Palos-Verdes-Estates/2639-Via-Carrillo-90274/home/7725992,CRMLS,PV18177875,N,Y,33.7690337,-118.4109705
PAST SALE,May-17-2018,Single Family Residential,1640 Via Machado,Palos Verdes Estates,CA,90274,1185000,3,2.0,160 - Lunada Bay/Margate,1450,5738,1955,618,817,,Sold,,,http://www.redfin.com/CA/Palos-Verdes-Estates/1640-Via-Machado-90274/home/7724577,CRMLS,PV18087102,N,Y,33.7826225,-118.4086656
PAST SALE,,Condo/Co-op,2508 Via Campesina,Palos Verdes Estates,CA,90274,1650000,3,4.0,,2770,,2007,,596,,,,,http://www.redfin.com/CA/Palos-Verdes-Estates/2508-Via-Campesina-90274/home/21924011,,,N,Y,33.799527,-118.38747
PAST SALE,March-30-2018,Single Family Residential,1609 Via Montemar,Palos Verdes Estates,CA,90274,1868000,3,3.0,163 - Malaga Cove,2669,7278,1956,666,700,,Sold,,,http://www.redfin.com/CA/Palos-Verdes-Estates/1609-Via-Montemar-90274/home/7723857,CRMLS,PV18006307,N,Y,33.7960656,-118.4026866
PAST SALE,March-7-2019,Condo/Co-op,2571 Via Campesina Unit A,Palos Verdes Estates,CA,90274,652500,2,2.0,163 - Malaga Cove,1335,11672,1964,324,489,450,Sold,,,http://www.redfin.com/CA/Palos-Verdes-Estates/2571-Via-Campesina-90274/unit-A/home/7723467,CRMLS,OC19006336,N,Y,33.8001008,-118.3867795
PAST SALE,January-17-2019,Single Family Residential,517 Via Almar,Palos Verdes Estates,CA,90274,2542000,3,3.0,163 - Malaga Cove,3030,6453,1961,373,839,,Sold,,,http://www.redfin.com/CA/Palos-Verdes-Estates/517-Via-Almar-90274/home/7723712,CRMLS,PV19003138,N,Y,33.7994746,-118.4008381
PAST SALE,February-5-2019,Single Family Residential,1328 Via Gabriel,Palos Verdes Estates,CA,90274,1455000,3,3.0,162 - Monte Malaga,2242,11751,1957,354,649,,Sold,,,http://www.redfin.com/CA/Palos-Verdes-Estates/1328-Via-Gabriel-90274/home/7726955,CRMLS,PV18293402,N,Y,33.7878811,-118.388263
PAST SALE,,Single Family Residential,1620 Espinosa Cir,Palos Verdes Estates,CA,90274,1537000,3,2.0,,1602,11152,1955,,959,,,,,http://www.redfin.com/CA/Palos-Verdes-Estates/1620-Espinosa-Cir-90274/home/7724554,,,N,Y,33.7841625,-118.4077985
PAST SALE,October-25-2018,Condo/Co-op,2357 Palos Verdes Dr W #8,Palos Verdes Estates,CA,90274,764000,2,2.0,160 - Lunada Bay/Margate,1340,10667,1976,457,570,550,Sold,,,http://www.redfin.com/CA/Palos-Verdes-Estates/2357-Palos-Verdes-Dr-W-90274/unit-8/home/7724922,CRMLS,PV18140454,N,Y,33.7739327,-118.4172006
PAST SALE,October-16-2018,Single Family Residential,1033 Via Palestra,Palos Verdes Estates,CA,90274,1700000,3,2.5,160 - Lunada Bay/Margate,2067,8484,1957,466,822,,Sold,,,http://www.redfin.com/CA/Palos-Verdes-Estates/1033-Via-Palestra-90274/home/7726204,CRMLS,PV18215257,N,Y,33.7728732,-118.4119745
PAST SALE,October-19-2018,Single Family Residential,300 Via Alcance,Palos Verdes Estates,CA,90274,1835000,3,3.0,164 - Valmonte,2216,9542,1950,463,828,,Sold,,,http://www.redfin.com/CA/Palos-Verdes-Estates/300-Via-Alcance-90274/home/7722294,CRMLS,SB18253800,N,Y,33.8008467,-118.3631558
PAST SALE,June-25-2018,Single Family Residential,4213 Via Valmonte,Palos Verdes Estates,CA,90274,1450000,3,2.5,164 - Valmonte,2199,8337,1955,579,659,,Sold,,,http://www.redfin.com/CA/Palos-Verdes-Estates/4213-Via-Valmonte-90274/home/7722544,CRMLS,PV18100521,N,Y,33.7981083,-118.3591839
PAST SALE,November-9-2018,Single Family Residential,305 Via Navajo,Palos Verdes Estates,CA,90274,1560000,3,2.0,164 - Valmonte,1900,7496,1952,442,821,,Sold,,,http://www.redfin.com/CA/Palos-Verdes-Estates/305-Via-Navajo-90274/home/7723130,CRMLS,PV18186082,N,Y,33.8012062,-118.3705514
PAST SALE,June-21-2018,Condo/Co-op,2575 Via Campesina Unit E,Palos Verdes Estates,CA,90274,665000,2,1.5,163 - Malaga Cove,1138,6765,1973,583,584,375,Sold,,,http://www.redfin.com/CA/Palos-Verdes-Estates/2575-Via-Campesina-90274/unit-E/home/103663152,CRMLS,PV18099228,N,Y,33.7999717,-118.3865741
PAST SALE,February-15-2018,Single Family Residential,2552 Palos Verdes Dr W,Palos Verdes Estates,CA,90274,1285000,3,2.0,160 - Lunada Bay/Margate,2220,12297,1956,709,579,,Sold,,,http://www.redfin.com/CA/Palos-Verdes-Estates/2552-Palos-Verdes-Dr-W-90274/home/7725882,CRMLS,PV17175525,N,Y,33.7713028,-118.4140055
PAST SALE,,Single Family Residential,4017 Via Nivel,Palos Verdes Estates,CA,90274,1415000,2,2.0,,1441,8079,1948,,982,,,,,http://www.redfin.com/CA/Palos-Verdes-Estates/4017-Via-Nivel-90274/home/7722287,,,N,Y,33.7995511,-118.3625623
PAST SALE,February-28-2019,Single Family Residential,405 Via Colorin,Palos Verdes Estates,CA,90274,1481000,3,1.75,164 - Valmonte,1760,8777,1952,331,841,,Sold,,,http://www.redfin.com/CA/Palos-Verdes-Estates/405-Via-Colorin-90274/home/7722291,CRMLS,SB18243876,N,Y,33.7994409,-118.3615579
PAST SALE,November-18-2019,Single Family Residential,3945 Via Solano,Palos Verdes Estates,CA,90274,1345000,3,1.75,164 - Valmonte,1298,7210,1937,68,1036,,Sold,,,http://www.redfin.com/CA/Palos-Verdes-Estates/3945-Via-Solano-90274/home/7722158,CRMLS,PV19215667,N,Y,33.8038083,-118.3630188
PAST SALE,,Single Family Residential,4229 Via Pinzon,Palos Verdes Estates,CA,90274,1000000,3,2.0,,1530,10785,1947,,654,,,,,http://www.redfin.com/CA/Palos-Verdes-Estates/4229-Via-Pinzon-90274/home/7722510,,,N,Y,33.7970127,-118.3582708
PAST SALE,November-22-2019,Single Family Residential,3949 Via Cardelina,Palos Verdes Estates,CA,90274,1275000,2,1.5,164 - Valmonte,1606,7912,1953,64,794,,Sold,,,http://www.redfin.com/CA/Palos-Verdes-Estates/3949-Via-Cardelina-90274/home/7722191,CRMLS,SB19242727,N,Y,33.8029805,-118.3630416
PAST SALE,December-20-2019,Single Family Residential,4041 Via Solano,Palos Verdes Estates,CA,90274,1428000,3,2.0,164 - Valmonte,1491,7796,1938,36,958,,Sold,,,http://www.redfin.com/CA/Palos-Verdes-Estates/4041-Via-Solano-90274/home/7722357,CRMLS,PV19181666,N,Y,33.8027853,-118.3606905
PAST SALE,December-19-2019,Single Family Residential,3920 Via Solano,Palos Verdes Estates,CA,90274,1585000,3,3.0,164 - Valmonte,2182,7126,1939,37,726,,Sold,,,http://www.redfin.com/CA/Palos-Verdes-Estates/3920-Via-Solano-90274/home/7722173,CRMLS,SB19213052,N,Y,33.8034031,-118.3641601
PAST SALE,July-20-2018,Single Family Residential,4324 Via Azalea,Palos Verdes Estates,CA,90274,1758000,3,2.5,164 - Valmonte,2054,8029,1938,554,856,,Sold,,,http://www.redfin.com/CA/Palos-Verdes-Estates/4324-Via-Azalea-90274/home/7722468,CRMLS,PV18144755,N,Y,33.7987234,-118.3567186
PAST SALE,,Single Family Residential,4153 Via Solano,Palos Verdes Estates,CA,90274,1450000,2,2.0,,2023,11722,1949,,717,,,,,http://www.redfin.com/CA/Palos-Verdes-Estates/4153-Via-Solano-90274/home/7722439,,,N,Y,33.8004641,-118.3580197
PAST SALE,October-25-2019,Single Family Residential,4412 Lucera Cir,Palos Verdes Estates,CA,90274,1180000,3,1.75,164 - Valmonte,1300,8858,1955,92,908,,Sold,,,http://www.redfin.com/CA/Palos-Verdes-Estates/4412-Lucera-Cir-90274/home/7722491,CRMLS,PV19159443,N,Y,33.7972955,-118.3558511
PAST SALE,February-1-2018,Single Family Residential,513 Via Gorrion,Palos Verdes Estates,CA,90274,1465000,3,2.25,164 - Valmonte,2516,15265,1951,723,582,,Sold,,,http://www.redfin.com/CA/Palos-Verdes-Estates/513-Via-Gorrion-90274/home/7722586,CRMLS,PV17247074,N,Y,33.79813,-118.3603024
PAST SALE,April-23-2019,Single Family Residential,564 Via Media,Palos Verdes Estates,CA,90274,2775000,3,3.5,163 - Malaga Cove,3054,6707,1956,277,909,,Sold,,,http://www.redfin.com/CA/Palos-Verdes-Estates/564-Via-Media-90274/home/7723698,CRMLS,PV18251119,N,Y,33.7992249,-118.4031202
PAST SALE,,Single Family Residential,804 Calle de Arboles,Redondo Beach,CA,90277,1150000,3,2.0,,1206,6923,1948,,954,,,,,http://www.redfin.com/CA/Redondo-Beach/804-Calle-de-Arboles-90277/home/7708887,,,N,Y,33.8043889,-118.3777605
PAST SALE,June-10-2019,Vacant Land,1805 Via Coronel,Palos Verdes Estates,CA,90274,1359888,0,,Palos Verdes Estates,,31348,,229,,,Sold,,,http://www.redfin.com/CA/Palos-Verdes-Estates/1805-Via-Coronel-90274/home/17497968,SDMLS,301849132,N,Y,33.7865003,-118.397896
PAST SALE,July-12-2019,Single Family Residential,1017 Via Zumaya,Palos Verdes Estates,CA,90274,1450000,3,2.0,160 - Lunada Bay/Margate,1703,9914,1957,197,851,,Sold,,,http://www.redfin.com/CA/Palos-Verdes-Estates/1017-Via-Zumaya-90274/home/7726194,CRMLS,PV19168298,N,Y,33.7720848,-118.4113584
PAST SALE,April-30-2019,Single Family Residential,3909 Via Picaposte,Palos Verdes Estates,CA,90274,2050000,3,2.75,164 - Valmonte,2037,12139,1951,270,1006,,Sold,,,http://www.redfin.com/CA/Palos-Verdes-Estates/3909-Via-Picaposte-90274/home/7722263,CRMLS,SB19059900,N,Y,33.7999599,-118.3649456
PAST SALE,May-7-2019,Single Family Residential,2909 Palos Verdes Dr N,Palos Verdes Estates,CA,90274,1250000,2,1.75,164 - Valmonte,1987,7745,1954,263,629,,Sold,,,http://www.redfin.com/CA/Palos-Verdes-Estates/2909-Palos-Verdes-Dr-N-90274/home/7723001,CRMLS,PV18277081,N,Y,33.8026226,-118.3807769
PAST SALE,April-19-2019,Single Family Residential,3648 Palos Verdes Dr N,Palos Verdes Estates,CA,90274,1255000,3,1.75,164 - Valmonte,1648,6694,1937,281,762,,Sold,,,http://www.redfin.com/CA/Palos-Verdes-Estates/3648-Palos-Verdes-Dr-N-90274/home/7723167,CRMLS,PV18216300,N,Y,33.8009563,-118.367858
PAST SALE,,Single Family Residential,360 Via Almar,Palos Verdes Estates,CA,90274,2050000,4,3.0,,2391,16474,1960,,857,,,,,http://www.redfin.com/CA/Palos-Verdes-Estates/360-Via-Almar-90274/home/7723392,,,N,Y,33.8004624,-118.3952011
PAST SALE,March-8-2019,Condo/Co-op,2525 Via Campesina #206,Palos Verdes Estates,CA,90274,750000,2,2.0,163 - Malaga Cove,1213,16809,1971,323,618,460,Sold,,,http://www.redfin.com/CA/Palos-Verdes-Estates/2525-Via-Campesina-90274/unit-206/home/7723451,CRMLS,PW18295756,N,Y,33.7999642,-118.3878224
PAST SALE,March-15-2019,Single Family Residential,106 Coronel Plz,Palos Verdes Estates,CA,90274,1250000,3,2.0,162 - Monte Malaga,1750,6746,1963,316,714,,Sold,,,http://www.redfin.com/CA/Palos-Verdes-Estates/106-Coronel-Plz-90274/home/7727116,CRMLS,PV18063653,N,Y,33.7844701,-118.3910018
PAST SALE,March-29-2018,Condo/Co-op,2322 Palos Verdes Dr W #109,Palos Verdes Estates,CA,90274,651000,2,2.0,160 - Lunada Bay/Margate,1184,21242,1973,667,550,345,Sold,,,http://www.redfin.com/CA/Palos-Verdes-Estates/2322-Palos-Verdes-Dr-W-90274/unit-109/home/7725830,CRMLS,DW18023695,N,Y,33.7746048,-118.416468
PAST SALE,September-28-2018,Single Family Residential,2213 Via Acalones,Palos Verdes Estates,CA,90274,1675000,3,3.0,162 - Monte Malaga,2610,12854,1956,484,642,,Sold,,,http://www.redfin.com/CA/Palos-Verdes-Estates/2213-Via-Acalones-90274/home/7726722,CRMLS,PV18074113,N,Y,33.7924353,-118.3931471
PAST SALE,February-16-2018,Condo/Co-op,2571 Via Campesina Unit A,Palos Verdes Estates,CA,90274,584000,2,2.0,163 - Malaga Cove,1335,11707,1964,708,437,450,Sold,,,http://www.redfin.com/CA/Palos-Verdes-Estates/2571-Via-Campesina-90274/unit-A/home/144383379,CRMLS,SB17263671,N,Y,33.8000661,-118.3867868
PAST SALE,April-8-2019,Townhouse,2575 Via Campesina Unit A,Palos Verdes Estates,CA,90274,825000,3,2.25,163 - Malaga Cove,1827,6765,1973,292,452,375,Sold,,,http://www.redfin.com/CA/Palos-Verdes-Estates/2575-Via-Campesina-90274/unit-A/home/7723441,CRMLS,PV18217583,N,Y,33.7999717,-118.3865741
PAST SALE,January-31-2018,Single Family Residential,789 Via Somonte,Palos Verdes Estates,CA,90274,1750000,3,2.0,163 - Malaga Cove,1935,7221,1950,724,904,,Sold,,,http://www.redfin.com/CA/Palos-Verdes-Estates/789-Via-Somonte-90274/home/7723987,CRMLS,PV17268404,N,Y,33.7966413,-118.3958515
PAST SALE,,Condo/Co-op,2575 Via Campesina Unit E,Palos Verdes Estates,CA,90274,665000,2,2.0,,1138,,1973,,584,,,,,http://www.redfin.com/CA/Palos-Verdes-Estates/2575-Via-Campesina-90274/unit-E/home/7723445,,,N,Y,33.7999717,-118.3865741
PAST SALE,August-31-2018,Single Family Residential,1516 Chelsea Rd,Palos Verdes Estates,CA,90274,1870000,3,2.0,160 - Lunada Bay/Margate,2435,11936,1954,512,768,,Sold,,,http://www.redfin.com/CA/Palos-Verdes-Estates/1516-Chelsea-Rd-90274/home/7724179,CRMLS,PV18124949,N,Y,33.7853955,-118.4150552
PAST SALE,May-1-2018,Single Family Residential,3024 Via Rivera,Palos Verdes Estates,CA,90274,1545000,3,3.0,160 - Lunada Bay/Margate,2255,6695,1965,634,685,,Sold,,,http://www.redfin.com/CA/Palos-Verdes-Estates/3024-Via-Rivera-90274/home/7726120,CRMLS,PV18056816,N,Y,33.7634611,-118.4100805
PAST SALE,April-23-2018,Single Family Residential,3225 Palos Verdes Dr N,Palos Verdes Estates,CA,90274,1188000,3,1.75,164 - Valmonte,1716,7327,1954,642,692,,Sold,,,http://www.redfin.com/CA/Palos-Verdes-Estates/3225-Palos-Verdes-Dr-N-90274/home/7722915,CRMLS,PV18042035,N,Y,33.8031368,-118.3750251
PAST SALE,June-12-2019,Single Family Residential,2765 Palos Verdes Dr N,,CA,90274,1200000,3,2.0,,1588,,1924,227,756,,Sold,,,http://www.redfin.com/CA/Palos-Verdes-Estates/2765-Palos-Verdes-Dr-N-90274/home/7723071,CRMLS,190028122,N,Y,33.8024009,-118.3821463
PAST SALE,June-14-2019,Single Family Residential,2444 Via Sonoma,Palos Verdes Estates,CA,90274,1567000,3,2.0,162 - Monte Malaga,2145,12013,1955,225,731,,Sold,,,http://www.redfin.com/CA/Palos-Verdes-Estates/2444-Via-Sonoma-90274/home/7726949,CRMLS,OC19087961,N,Y,33.7880985,-118.3880348
PAST SALE,August-20-2019,Single Family Residential,1712 Espinosa Cir,Palos Verdes Estates,CA,90274,1100000,3,3.0,160 - Lunada Bay/Margate,2196,8823,1955,158,501,,Sold,,,http://www.redfin.com/CA/Palos-Verdes-Estates/1712-Espinosa-Cir-90274/home/7724612,CRMLS,SB19065922,N,Y,33.7820927,-118.4087797
PAST SALE,August-29-2019,Single Family Residential,1528 Palos Verdes Dr W,Palos Verdes Estates,CA,90274,1300000,3,2.0,160 - Lunada Bay/Margate,1686,7955,1957,149,771,,Sold,,,http://www.redfin.com/CA/Palos-Verdes-Estates/1528-Palos-Verdes-Dr-W-90274/home/7724425,CRMLS,SB19090234,N,Y,33.7840536,-118.4126327
PAST SALE,September-17-2019,Single Family Residential,1721 Via Zurita,Palos Verdes Estates,CA,90274,1461200,3,2.25,160 - Lunada Bay/Margate,2168,7095,1956,130,674,,Sold,,,http://www.redfin.com/CA/Palos-Verdes-Estates/1721-Via-Zurita-90274/home/7724614,CRMLS,PV19111314,N,Y,33.7808516,-118.4078897
PAST SALE,February-14-2018,Single Family Residential,3416 Via La Selva,Palos Verdes Estates,CA,90274,1434000,3,2.25,164 - Valmonte,1971,8074,1959,710,728,,Sold,,,http://www.redfin.com/CA/Palos-Verdes-Estates/3416-Via-La-Selva-90274/home/7722865,CRMLS,PV18009152,N,Y,33.8030744,-118.3710992
PAST SALE,June-1-2019,Single Family Residential,3817 Palos Verdes Dr N,Palos Verdes Estates,CA,90274,1495000,3,2.0,164 - Valmonte,1717,9238,1952,238,871,,Sold,,,http://www.redfin.com/CA/Palos-Verdes-Estates/3817-Palos-Verdes-Dr-N-90274/home/7722265,CRMLS,SB19078413,N,Y,33.8003458,-118.3654841
PAST SALE,June-14-2019,Single Family Residential,3616 Navajo Pl,Palos Verdes Estates,CA,90274,1960000,3,2.5,164 - Valmonte,2081,8083,1950,225,942,,Sold,,,http://www.redfin.com/CA/Palos-Verdes-Estates/3616-Navajo-Pl-90274/home/7722816,CRMLS,PV19117172,N,Y,33.8034239,-118.3689764
PAST SALE,July-24-2019,Single Family Residential,3316 Palos Verdes Dr N,Palos Verdes Estates,CA,90274,1489000,3,2.0,164 - Valmonte,1930,6960,1947,185,772,,Sold,,,http://www.redfin.com/CA/Palos-Verdes-Estates/3316-Palos-Verdes-Dr-N-90274/home/7723105,CRMLS,PV19136964,N,Y,33.8021694,-118.3733589
PAST SALE,,Single Family Residential,71 Valmonte Plz,Palos Verdes Estates,CA,90274,483500,3,2.0,,1873,5438,1952,,258,,,,,http://www.redfin.com/CA/Palos-Verdes-Estates/71-Valmonte-Plz-90274/home/7722737,,,N,Y,33.7977387,-118.3651645
PAST SALE,August-28-2019,Single Family Residential,3633 Via La Selva,Palos Verdes Estates,CA,90274,1500000,3,3.0,164 - Valmonte,2733,15573,1949,150,549,,Sold,,,http://www.redfin.com/CA/Palos-Verdes-Estates/3633-Via-La-Selva-90274/home/7722829,CRMLS,SB18233801,N,Y,33.8026747,-118.367721
PAST SALE,September-13-2019,Single Family Residential,3721 Palos Verdes Dr N,Palos Verdes Estates,CA,90274,1340000,3,2.0,164 - Valmonte,1717,8398,1948,134,780,,Sold,,,http://www.redfin.com/CA/Palos-Verdes-Estates/3721-Palos-Verdes-Dr-N-90274/home/7722252,CRMLS,OC19132580,N,Y,33.8013214,-118.3667167
PAST SALE,November-13-2019,Single Family Residential,3956 Palos Verdes Dr N,Palos Verdes Estates,CA,90274,1350000,3,1.75,164 - Valmonte,1861,8415,1951,73,725,,Sold,,,http://www.redfin.com/CA/Palos-Verdes-Estates/3956-Palos-Verdes-Dr-N-90274/home/7723264,CRMLS,PV19156732,N,Y,33.7961774,-118.3670819
PAST SALE,,Single Family Residential,3601 Pso Del Campo,Palos Verdes Estates,CA,90274,2300000,3,3.0,,3146,12218,1962,,731,,,,,http://www.redfin.com/CA/Palos-Verdes-Estates/3601-Pso-Del-Campo-90274/home/7723193,,,N,Y,33.8002405,-118.3701634
PAST SALE,November-26-2019,Single Family Residential,3700 Palos Verdes Dr N,Palos Verdes Estates,CA,90274,1350000,3,1.75,164 - Valmonte,1822,7630,1952,60,741,,Sold,,,http://www.redfin.com/CA/Palos-Verdes-Estates/3700-Palos-Verdes-Dr-N-90274/home/7723200,CRMLS,SB19257648,N,Y,33.8008014,-118.3676754
PAST SALE,,Single Family Residential,4029 Via Pavion,Palos Verdes Estates,CA,90274,1260000,3,2.0,,1615,10299,1956,,780,,,,,http://www.redfin.com/CA/Palos-Verdes-Estates/4029-Via-Pavion-90274/home/7722639,,,N,Y,33.7975802,-118.3624253
PAST SALE,March-22-2019,Single Family Residential,2905 Via Rivera,Palos Verdes Estates,CA,90274,1551000,3,2.5,160 - Lunada Bay/Margate,2200,15206,1965,309,705,,Sold,,,http://www.redfin.com/CA/Palos-Verdes-Estates/2905-Via-Rivera-90274/home/7726085,CRMLS,PV19012271,N,Y,33.7646211,-118.4124994
PAST SALE,August-2-2019,Single Family Residential,2936 Via Alvarado,Palos Verdes Estates,CA,90274,1865000,3,3.0,160 - Lunada Bay/Margate,2636,7804,1968,176,708,,Sold,,,http://www.redfin.com/CA/Palos-Verdes-Estates/2936-Via-Alvarado-90274/home/7725201,CRMLS,PV19073511,N,Y,33.764629,-118.416396
PAST SALE,March-29-2019,Single Family Residential,740 Via Del Monte,Palos Verdes Estates,CA,90274,1525000,3,2.0,163 - Malaga Cove,2239,8642,1926,302,681,,Sold,,,http://www.redfin.com/CA/Palos-Verdes-Estates/740-Via-Del-Monte-90274/home/7724039,CRMLS,SB18269411,N,Y,33.7960669,-118.3983505
PAST SALE,March-15-2019,Single Family Residential,2508 Via Pinale,Palos Verdes Estates,CA,90274,2300000,3,3.5,163 - Malaga Cove,2402,5336,2012,316,958,,Sold,,,http://www.redfin.com/CA/Palos-Verdes-Estates/2508-Via-Pinale-90274/home/7723544,CRMLS,SB19037595,N,Y,33.7988324,-118.3871219
PAST SALE,October-17-2018,Single Family Residential,888 Via Del Monte,Palos Verdes Estates,CA,90274,1990000,3,1.75,162 - Monte Malaga,2202,16961,1949,465,904,,Sold,,,http://www.redfin.com/CA/Palos-Verdes-Estates/888-Via-Del-Monte-90274/home/7726662,CRMLS,PV18205584,N,Y,33.7958723,-118.3913112
PAST SALE,June-13-2019,Single Family Residential,2225 Via Guadalana,Palos Verdes Estates,CA,90274,2734200,3,2.5,162 - Monte Malaga,2573,16038,1954,226,1063,,Sold,,,http://www.redfin.com/CA/Palos-Verdes-Estates/2225-Via-Guadalana-90274/home/7726701,CRMLS,PV19085155,N,Y,33.7939097,-118.3926222
PAST SALE,June-28-2019,Single Family Residential,2305 Via Acalones,Palos Verdes Estates,CA,90274,1948000,3,2.5,162 - Monte Malaga,2301,10482,1956,211,847,,Sold,,,http://www.redfin.com/CA/Palos-Verdes-Estates/2305-Via-Acalones-90274/home/7726779,CRMLS,SB19041720,N,Y,33.7929477,-118.390454
PAST SALE,,Single Family Residential,2220 Via La Brea,Palos Verdes Estates,CA,90274,1550000,3,3.0,,2615,14063,1955,,593,,,,,http://www.redfin.com/CA/Palos-Verdes-Estates/2220-Via-La-Brea-90274/home/7726800,,,N,Y,33.7914001,-118.3920745
PAST SALE,April-30-2019,Single Family Residential,3917 Via Solano,Palos Verdes Estates,CA,90274,1410000,3,1.75,164 - Valmonte,1690,7317,1952,270,834,,Sold,,,http://www.redfin.com/CA/Palos-Verdes-Estates/3917-Via-Solano-90274/home/7722151,CRMLS,SB19018927,N,Y,33.8038387,-118.3643427
PAST SALE,October-3-2018,Single Family Residential,1540 Addison Rd,Palos Verdes Estates,CA,90274,1799000,3,2.5,160 - Lunada Bay/Margate,2369,9173,1950,479,759,,Sold,,,http://www.redfin.com/CA/Palos-Verdes-Estates/1540-Addison-Rd-90274/home/7724317,CRMLS,PV18080144,N,Y,33.7842191,-118.4144488
PAST SALE,,Single Family Residential,1536 Espinosa Cir,Palos Verdes Estates,CA,90274,3150000,3,3.0,,2280,14802,1957,,1382,,,,,http://www.redfin.com/CA/Palos-Verdes-Estates/1536-Espinosa-Cir-90274/home/7724522,,,N,Y,33.7843472,-118.4107398
PAST SALE,November-9-2018,Condo/Co-op,2322 Palos Verdes Dr W #204,Palos Verdes Estates,CA,90274,679000,2,1.5,160 - Lunada Bay/Margate,1471,21242,1973,442,462,345,Sold,,,http://www.redfin.com/CA/Palos-Verdes-Estates/2322-Palos-Verdes-Dr-W-90274/unit-204/home/7725834,CRMLS,PV18187969,N,Y,33.7746048,-118.416468
PAST SALE,June-14-2018,Single Family Residential,504 Via Alcance,Palos Verdes Estates,CA,90274,1420000,3,2.0,164 - Valmonte,2146,7308,1952,590,662,,Sold,,,http://www.redfin.com/CA/Palos-Verdes-Estates/504-Via-Alcance-90274/home/7722571,CRMLS,PV18099433,N,Y,33.7987906,-118.363521
PAST SALE,May-18-2018,Single Family Residential,1705 Via Montemar,Palos Verdes Estates,CA,90274,2980000,3,2.5,163 - Malaga Cove,3282,6971,1927,617,908,,Sold,,,http://www.redfin.com/CA/Palos-Verdes-Estates/1705-Via-Montemar-90274/home/7723902,CRMLS,PV18092195,N,Y,33.7965507,-118.4009066
PAST SALE,May-9-2018,Condo/Co-op,2316 Palos Verdes Dr W #4,Palos Verdes Estates,CA,90274,674000,3,2.0,160 - Lunada Bay/Margate,1305,10714,1963,626,516,285,Sold,,,http://www.redfin.com/CA/Palos-Verdes-Estates/2316-Palos-Verdes-Dr-W-90274/unit-4/home/7725817,CRMLS,PW18052367,N,Y,33.7748751,-118.4165969
PAST SALE,,Vacant Land,1604 Paseo La Cresta,Palos Verdes Estates,CA,90274,3500000,,,,,45495,,,,,,,,http://www.redfin.com/CA/Palos-Verdes-Estates/1604-Paseo-La-Cresta-90274/home/22434745,,,N,Y,33.783141,-118.395519
PAST SALE,May-9-2018,Single Family Residential,1105 Via Coronel,Palos Verdes Estates,CA,90274,1345000,2,1.75,160 - Lunada Bay/Margate,1631,6553,1955,626,825,,Sold,,,http://www.redfin.com/CA/Palos-Verdes-Estates/1105-Via-Coronel-90274/home/7724506,CRMLS,SB18029244,N,Y,33.7802182,-118.4102631
PAST SALE,May-16-2018,Single Family Residential,3205 Palos Verdes Dr N,Palos Verdes Estates,CA,90274,1425000,3,2.0,164 - Valmonte,1605,6860,1952,619,888,,Sold,,,http://www.redfin.com/CA/Palos-Verdes-Estates/3205-Palos-Verdes-Dr-N-90274/home/7722910,CRMLS,SB18081144,N,Y,33.803138,-118.3759838
PAST SALE,,Single Family Residential,1616 Via Garfias,Palos Verdes Estates,CA,90274,1175000,3,2.0,,1423,6355,1956,,826,,,,,http://www.redfin.com/CA/Palos-Verdes-Estates/1616-Via-Garfias-90274/home/7724593,,,N,Y,33.7833909,-118.4094415
PAST SALE,June-1-2018,Single Family Residential,2808 Via Pacheco,Palos Verdes Estates,CA,90274,1649000,3,2.25,160 - Lunada Bay/Margate,2205,8762,1963,603,748,,Sold,,,http://www.redfin.com/CA/Palos-Verdes-Estates/2808-Via-Pacheco-90274/home/7725163,CRMLS,PV18083519,N,Y,33.767156,-118.4148726
PAST SALE,December-12-2018,Single Family Residential,515 Via Almar,Palos Verdes Estates,CA,90274,2280000,3,2.0,163 - Malaga Cove,2314,6427,1959,409,985,,Sold,,,http://www.redfin.com/CA/Palos-Verdes-Estates/515-Via-Almar-90274/home/7723711,CRMLS,SB18226682,N,Y,33.7994945,-118.4006783
PAST SALE,October-1-2018,Single Family Residential,2229 Via Fernandez,Palos Verdes Estates,CA,90274,1445000,3,1.75,162 - Monte Malaga,1616,7712,1955,481,894,,Sold,,,http://www.redfin.com/CA/Palos-Verdes-Estates/2229-Via-Fernandez-90274/home/7726839,CRMLS,PV18190690,N,Y,33.7905017,-118.390454
PAST SALE,May-25-2018,Condo/Co-op,2525 Via Campesina #405,Palos Verdes Estates,CA,90274,870000,2,1.75,163 - Malaga Cove,1319,16809,1971,610,660,460,Sold,,,http://www.redfin.com/CA/Palos-Verdes-Estates/2525-Via-Campesina-90274/unit-405/home/7723464,CRMLS,PV18123801,N,Y,33.7999642,-118.3878224
PAST SALE,July-23-2018,Single Family Residential,2409 Via Sonoma,Palos Verdes Estates,CA,90274,1566000,3,3.0,162 - Monte Malaga,1969,12274,1956,551,795,,Sold,,,http://www.redfin.com/CA/Palos-Verdes-Estates/2409-Via-Sonoma-90274/home/7726934,CRMLS,PV18085966,N,Y,33.7898078,-118.3898606
PAST SALE,July-24-2018,Single Family Residential,3115 Via La Selva,Palos Verdes Estates,CA,90274,1462500,2,1.75,164 - Valmonte,1523,6339,1951,550,960,,Sold,,,http://www.redfin.com/CA/Palos-Verdes-Estates/3115-Via-La-Selva-90274/home/7722937,CRMLS,PV18136535,N,Y,33.8039504,-118.3774674
PAST SALE,August-8-2018,Single Family Residential,15 Margate Sq,Palos Verdes Estates,CA,90274,1450000,3,2.0,160 - Lunada Bay/Margate,1630,4977,1962,535,890,,Sold,,,http://www.redfin.com/CA/Palos-Verdes-Estates/15-Margate-Sq-90274/unit-SG/home/7724285,CRMLS,SB18120840,N,Y,33.7827658,-118.4145075
PAST SALE,December-28-2018,Single Family Residential,1104 Palos Verdes Dr W,Palos Verdes Estates,CA,90274,1488000,3,2.0,163 - Malaga Cove,1959,19158,1956,393,760,,Sold,,,http://www.redfin.com/CA/Palos-Verdes-Estates/1104-Palos-Verdes-Dr-W-90274/home/7724334,CRMLS,SB18274348,N,Y,33.7906776,-118.4045123
PAST SALE,March-27-2018,Single Family Residential,701 Via Somonte,Palos Verdes Estates,CA,90274,1600000,2,3.0,163 - Malaga Cove,1970,8550,1941,669,812,,Sold,,,http://www.redfin.com/CA/Palos-Verdes-Estates/701-Via-Somonte-90274/home/7723981,CRMLS,PV18051059,N,Y,33.7969068,-118.3964335
PAST SALE,,Single Family Residential,3209 Via La Selva,Palos Verdes Estates,CA,90274,1675000,3,3.0,,2838,6231,1978,,590,,,,,http://www.redfin.com/CA/Palos-Verdes-Estates/3209-Via-La-Selva-90274/home/7722949,,,N,Y,33.8039598,-118.375824
PAST SALE,,Single Family Residential,2101 Paseo Del Mar,Palos Verdes Estates,CA,90274,6000000,3,3.0,,2815,18691,1970,,2131,,,,,http://www.redfin.com/CA/Palos-Verdes-Estates/2101-Paseo-Del-Mar-90274/home/7725304,,,N,Y,33.7773534,-118.4242055
PAST SALE,October-16-2018,Single Family Residential,1517 Palos Verdes Dr W,Palos Verdes Estates,CA,90274,1499000,3,2.0,160 - Lunada Bay/Margate,1592,8931,1954,466,942,,Sold,,,http://www.redfin.com/CA/Palos-Verdes-Estates/1517-Palos-Verdes-Dr-W-90274/home/7724292,CRMLS,PV18193729,N,Y,33.7848554,-118.4133666
PAST SALE,July-17-2018,Single Family Residential,113 Via Ardilla,Palos Verdes Estates,CA,90274,1575000,3,2.0,164 - Valmonte,1669,7811,1956,557,944,,Sold,,,http://www.redfin.com/CA/Palos-Verdes-Estates/113-Via-Ardilla-90274/home/7722211,CRMLS,SB18100036,N,Y,33.803434,-118.3658036
PAST SALE,September-11-2018,Single Family Residential,2357 Via Anacapa,Palos Verdes Estates,CA,90274,1740000,3,1.75,160 - Lunada Bay/Margate,1717,15594,1952,501,1013,,Sold,,,http://www.redfin.com/CA/Palos-Verdes-Estates/2357-Via-Anacapa-90274/home/7724855,CRMLS,PV18138687,N,Y,33.7732978,-118.419585
PAST SALE,April-2-2019,Single Family Residential,1041 Via Palestra,Palos Verdes Estates,CA,90274,1875000,3,3.0,160 - Lunada Bay/Margate,2322,10468,1957,298,807,,Sold,,,http://www.redfin.com/CA/Palos-Verdes-Estates/1041-Via-Palestra-90274/home/7726203,CRMLS,SB19000118,N,Y,33.7730857,-118.4121101
PAST SALE,July-12-2019,Single Family Residential,1717 Addison Rd,Palos Verdes Estates,CA,90274,1300000,2,2.0,160 - Lunada Bay/Margate,1897,9080,1953,197,685,,Sold,,,http://www.redfin.com/CA/Palos-Verdes-Estates/1717-Addison-Rd-90274/home/7724256,CRMLS,PV19046554,N,Y,33.7830671,-118.4156783
PAST SALE,July-18-2019,Single Family Residential,2896 Via De La Guerra,Palos Verdes Estates,CA,90274,1045960,3,2.0,160 - Lunada Bay/Margate,1742,5534,1956,191,600,,Sold,,,http://www.redfin.com/CA/Palos-Verdes-Estates/2896-Via-De-La-Guerra-90274/home/7726066,CRMLS,SB19130301,N,Y,33.765389,-118.4126363
PAST SALE,August-1-2019,Single Family Residential,2120 Via Pacheco,Palos Verdes Estates,CA,90274,1410000,3,2.0,160 - Lunada Bay/Margate,1716,11396,1955,177,822,,Sold,,,http://www.redfin.com/CA/Palos-Verdes-Estates/2120-Via-Pacheco-90274/home/7724703,CRMLS,PV19096119,N,Y,33.7771103,-118.4182345
PAST SALE,August-2-2019,Single Family Residential,4004 Via Opata,Palos Verdes Estates,CA,90274,1227000,3,1.75,164 - Valmonte,1203,8304,1953,176,1020,,Sold,,,http://www.redfin.com/CA/Palos-Verdes-Estates/4004-Via-Opata-90274/home/7722771,CRMLS,SB19154453,N,Y,33.7966737,-118.3655754
PAST SALE,August-15-2019,Single Family Residential,3321 Palos Verdes Dr N,Palos Verdes Estates,CA,90274,1525000,3,2.0,164 - Valmonte,1603,8619,1952,163,951,,Sold,,,http://www.redfin.com/CA/Palos-Verdes-Estates/3321-Palos-Verdes-Dr-N-90274/home/7722899,CRMLS,PV19098127,N,Y,33.8029912,-118.3731991
PAST SALE,,Single Family Residential,101 Via Colusa,Palos Verdes Estates,CA,90274,2095000,2,1.0,,1273,7375,1948,,1646,,,,,http://www.redfin.com/CA/Palos-Verdes-Estates/101-Via-Colusa-90274/home/7722946,,,N,Y,33.8039096,-118.3746599
PAST SALE,September-5-2019,Single Family Residential,801 Via Coronel,Palos Verdes Estates,CA,90274,1180000,3,2.0,160 - Lunada Bay/Margate,1790,9674,1956,142,659,,Sold,,,http://www.redfin.com/CA/Palos-Verdes-Estates/801-Via-Coronel-90274/home/7724456,CRMLS,PV19166393,N,Y,33.7806585,-118.4144629
PAST SALE,October-1-2019,Single Family Residential,1616 Granvia Altamira,Palos Verdes Estates,CA,90274,1740000,3,2.0,162 - Monte Malaga,2344,6859,1965,116,742,,Sold,,,http://www.redfin.com/CA/Palos-Verdes-Estates/1616-Granvia-Altamira-90274/home/7727142,CRMLS,OC19176294,N,Y,33.7827984,-118.3919147
PAST SALE,October-3-2019,Single Family Residential,1520 Via Montemar,Palos Verdes Estates,CA,90274,1250000,2,1.75,163 - Malaga Cove,1984,8159,1955,114,630,,Sold,,,http://www.redfin.com/CA/Palos-Verdes-Estates/1520-Via-Montemar-90274/home/7723891,CRMLS,PV19208516,N,Y,33.7951725,-118.4030517
PAST SALE,,Single Family Residential,2708 Via La Selva,Palos Verdes Estates,CA,90274,1450000,3,3.0,,1728,7202,1956,,839,,,,,http://www.redfin.com/CA/Palos-Verdes-Estates/2708-Via-La-Selva-90274/home/7723019,,,N,Y,33.8033864,-118.3848624
PAST SALE,December-4-2019,Single Family Residential,2108 Palos Verdes Dr W,Palos Verdes Estates,CA,90274,1501000,3,2.5,160 - Lunada Bay/Margate,1871,6143,1960,52,802,,Sold,,,http://www.redfin.com/CA/Palos-Verdes-Estates/2108-Palos-Verdes-Dr-W-90274/home/7725774,CRMLS,SB19262235,N,Y,33.7766723,-118.4166505
PAST SALE,,Single Family Residential,3915 Via Nivel,Palos Verdes Estates,CA,90274,1030000,2,2.0,,1825,8812,1951,,564,,,,,http://www.redfin.com/CA/Palos-Verdes-Estates/3915-Via-Nivel-90274/home/7722272,,,N,Y,33.7996682,-118.3643427
PAST SALE,December-6-2019,Single Family Residential,4024 Via Pavion,Palos Verdes Estates,CA,90274,1190000,3,3.0,164 - Valmonte,2001,6973,1953,50,595,,Sold,,,http://www.redfin.com/CA/Palos-Verdes-Estates/4024-Via-Pavion-90274/home/7722748,CRMLS,PV19221625,N,Y,33.7971395,-118.3627449
PAST SALE,January-9-2020,Single Family Residential,1032 Via Ventana,Palos Verdes Estates,CA,90274,1800000,3,2.25,160 - Lunada Bay/Margate,2150,9982,1960,16,837,,Sold,,,http://www.redfin.com/CA/Palos-Verdes-Estates/1032-Via-Ventana-90274/home/7725737,CRMLS,PV19250849,N,Y,33.7750598,-118.4130927
PAST SALE,,Single Family Residential,529 Via Del Monte,Palos Verdes Estates,CA,90274,1200000,3,2.0,,2218,7374,1959,,541,,,,,http://www.redfin.com/CA/Palos-Verdes-Estates/529-Via-Del-Monte-90274/home/7723423,,,N,Y,33.7989692,-118.3915495
PAST SALE,April-12-2019,Single Family Residential,1612 Via Montemar,Palos Verdes Estates,CA,90274,2000000,3,2.0,163 - Malaga Cove,2505,7362,1954,288,798,,Sold,,,http://www.redfin.com/CA/Palos-Verdes-Estates/1612-Via-Montemar-90274/home/7723883,CRMLS,SB19060574,N,Y,33.7957446,-118.4023671
PAST SALE,June-5-2019,Single Family Residential,3932 Via Nivel,Palos Verdes Estates,CA,90274,1430000,3,2.0,Valmonte,1712,6098,1949,234,835,,Sold,,,http://www.redfin.com/CA/Palos-Verdes-Estates/3932-Via-Nivel-90274/home/7722594,TheMLS,19-456986,N,Y,33.7991663,-118.3638634
PAST SALE,October-11-2018,Single Family Residential,4132 Via Picaposte,Palos Verdes Estates,CA,90274,1550000,3,2.75,164 - Valmonte,1860,7978,1934,471,833,,Sold,,,http://www.redfin.com/CA/Palos-Verdes-Estates/4132-Via-Picaposte-90274/home/7722423,CRMLS,SB18212603,N,Y,33.7994322,-118.3595035
PAST SALE,August-3-2018,Single Family Residential,2140 Via Pacheco,Palos Verdes Estates,CA,90274,1655000,3,2.5,160 - Lunada Bay/Margate,2012,11018,1953,540,823,,Sold,,,http://www.redfin.com/CA/Palos-Verdes-Estates/2140-Via-Pacheco-90274/home/7724707,CRMLS,SB18151366,N,Y,33.7763126,-118.4188786
PAST SALE,July-19-2019,Condo/Co-op,2545 Via Campesina #102,Palos Verdes Estates,CA,90274,685000,2,2.25,163 - Malaga Cove,1540,,1986,190,445,518,Sold,,,http://www.redfin.com/CA/Palos-Verdes-Estates/2545-Via-Campesina-90274/unit-102/home/7723480,CRMLS,PV19084455,N,Y,33.8001692,-118.3873111
PAST SALE,August-2-2019,Single Family Residential,773 Via Del Monte,Palos Verdes Estates,CA,90274,3070000,3,5.0,163 - Malaga Cove,3500,8856,2004,176,877,,Sold,,,http://www.redfin.com/CA/Palos-Verdes-Estates/773-Via-Del-Monte-90274/home/7724070,CRMLS,PV19125055,N,Y,33.7944433,-118.4013173
PAST SALE,August-2-2019,Single Family Residential,4205 Via Alondra,Palos Verdes Estates,CA,90274,1186400,3,2.5,164 - Valmonte,2162,6945,1960,176,549,,Sold,,,http://www.redfin.com/CA/Palos-Verdes-Estates/4205-Via-Alondra-90274/home/7722671,CRMLS,SB19086285,N,Y,33.7965001,-118.3603253
PAST SALE,August-9-2019,Single Family Residential,817 Tyburn Rd,Palos Verdes Estates,CA,90274,1539000,3,2.5,160 - Lunada Bay/Margate,1876,5830,1958,169,820,,Sold,,,http://www.redfin.com/CA/Palos-Verdes-Estates/817-Tyburn-Rd-90274/home/7726030,CRMLS,TR19167011,N,Y,33.7674562,-118.4125689
PAST SALE,August-20-2019,Single Family Residential,1208 Via Landeta,Palos Verdes Estates,CA,90274,1240000,3,2.0,160 - Lunada Bay/Margate,1760,7409,1958,158,705,,Sold,,,http://www.redfin.com/CA/Palos-Verdes-Estates/1208-Via-Landeta-90274/home/7724620,CRMLS,SB19143168,N,Y,33.7813621,-118.4085744
PAST SALE,September-20-2019,Single Family Residential,202 Calle De Arboles,Redondo Beach,CA,90277,1655000,3,3.0,128 - Hollywood Riviera,2407,6080,2000,127,688,,Sold,,,http://www.redfin.com/CA/Redondo-Beach/202-Calle-de-Arboles-90277/home/7707903,CRMLS,SB19112316,N,Y,33.8043734,-118.3878151
PAST SALE,November-1-2019,Single Family Residential,381 Palos Verdes Dr W,Palos Verdes Estates,CA,90274,2640000,3,3.5,163 - Malaga Cove,2417,6021,2017,85,1092,,Sold,,,http://www.redfin.com/CA/Palos-Verdes-Estates/381-Palos-Verdes-Dr-W-90274/home/7723385,CRMLS,PV19148885,N,Y,33.8003411,-118.3942426
PAST SALE,December-3-2019,Single Family Residential,2516 Chelsea Rd,Palos Verdes Estates,CA,90274,1786175,3,3.0,160 - Lunada Bay/Margate,2278,11078,1955,53,784,,Sold,,,http://www.redfin.com/CA/Palos-Verdes-Estates/2516-Chelsea-Rd-90274/home/7724998,CRMLS,PW19254453,N,Y,33.7704995,-118.4183412
PAST SALE,January-10-2020,Condo/Co-op,2545 Via Campesina #201,Palos Verdes Estates,CA,90274,730000,2,2.5,163 - Malaga Cove,1570,21381,1986,15,465,523,Sold,,,http://www.redfin.com/CA/Palos-Verdes-Estates/2545-Via-Campesina-90274/unit-201/home/7723485,CRMLS,SB19209766,N,Y,33.8001692,-118.3873111
PAST SALE,August-16-2018,Single Family Residential,4405 Via Valmonte,Palos Verdes Estates,CA,90274,1625000,3,2.0,164 - Valmonte,2456,9622,1975,527,662,,Sold,,,http://www.redfin.com/CA/Palos-Verdes-Estates/4405-Via-Valmonte-90274/home/7722466,CRMLS,SB18118445,N,Y,33.7981402,-118.3565245
PAST SALE,December-3-2018,Single Family Residential,4016 Via Pavion,Palos Verdes Estates,CA,90274,1423500,3,1.25,164 - Valmonte,1600,8970,1955,418,890,,Sold,,,http://www.redfin.com/CA/Palos-Verdes-Estates/4016-Via-Pavion-90274/home/7722746,CRMLS,SB18258134,N,Y,33.7973464,-118.3632014
PAST SALE,August-3-2018,Condo/Co-op,2545 Via Campesina #106,Palos Verdes Estates,CA,90274,660000,2,2.25,163 - Malaga Cove,1511,21381,1986,540,437,518,Sold,,,http://www.redfin.com/CA/Palos-Verdes-Estates/2545-Via-Campesina-90274/unit-106/home/7723484,CRMLS,SB18149365,N,Y,33.8001692,-118.3873111
PAST SALE,August-20-2019,Single Family Residential,2517 Via Olivera,Palos Verdes Estates,CA,90274,2060000,3,2.5,160 - Lunada Bay/Margate,2686,13845,1974,158,767,,Sold,,,http://www.redfin.com/CA/Palos-Verdes-Estates/2517-Via-Olivera-90274/home/7725703,CRMLS,PV19138451,N,Y,33.7735869,-118.4102716
PAST SALE,May-1-2018,Condo/Co-op,2337 Palos Verdes Dr W #7,Palos Verdes Estates,CA,90274,815000,3,2.0,160 - Lunada Bay/Margate,1567,15913,1975,634,520,550,Sold,,,http://www.redfin.com/CA/Palos-Verdes-Estates/2337-Palos-Verdes-Dr-W-90274/unit-7/home/7724909,CRMLS,SB18070550,N,Y,33.774389,-118.4174824
PAST SALE,February-15-2018,Single Family Residential,2632 Via Pacheco,Palos Verdes Estates,CA,90274,1369000,3,2.0,160 - Lunada Bay/Margate,1576,8083,1953,709,869,,Sold,,,http://www.redfin.com/CA/Palos-Verdes-Estates/2632-Via-Pacheco-90274/home/7725039,CRMLS,PV17276111,N,Y,33.7705142,-118.4151418
PAST SALE,July-16-2018,Single Family Residential,2332 Chelsea Rd,Palos Verdes Estates,CA,90274,1610000,3,1.75,160 - Lunada Bay/Margate,1831,9438,1952,558,879,,Sold,,,http://www.redfin.com/CA/Palos-Verdes-Estates/2332-Chelsea-Rd-90274/home/7724857,CRMLS,SB18130357,N,Y,33.7726613,-118.4199537
PAST SALE,,Single Family Residential,2648 Via Anacapa,Palos Verdes Estates,CA,90274,2100000,4,3.0,,2501,9881,1957,,840,,,,,http://www.redfin.com/CA/Palos-Verdes-Estates/2648-Via-Anacapa-90274/home/7725071,,,N,Y,33.7694715,-118.4158767
PAST SALE,May-9-2019,Condo/Co-op,2201 Via Carrillo Unit 3C,Palos Verdes Estates,CA,90274,805000,2,2.0,160 - Lunada Bay/Margate,1840,11455,1979,261,438,500,Sold,,,http://www.redfin.com/CA/Palos-Verdes-Estates/2201-Via-Carrillo-90274/unit-3C/home/7725856,CRMLS,WS19085254,N,Y,33.7754432,-118.4167389
PAST SALE,July-19-2019,Single Family Residential,2304 Chelsea Rd,Palos Verdes Estates,CA,90274,1565000,3,2.0,160 - Lunada Bay/Margate,1542,8680,1952,190,1015,,Sold,,,http://www.redfin.com/CA/Palos-Verdes-Estates/2304-Chelsea-Rd-90274/home/7724834,CRMLS,PV19149777,N,Y,33.7737011,-118.4207912
PAST SALE,September-6-2019,Single Family Residential,516 Via Pena,Palos Verdes Estates,CA,90274,1431875,3,1.75,160 - Lunada Bay/Margate,1576,6200,1954,141,909,,Sold,,,http://www.redfin.com/CA/Palos-Verdes-Estates/516-Via-Pena-90274/home/7725082,CRMLS,PV19179676,N,Y,33.7700757,-118.4184324
PAST SALE,October-3-2019,Condo/Co-op,2322 Palos Verdes Dr W #103,Palos Verdes Estates,CA,90274,689000,2,2.0,160 - Lunada Bay/Margate,1171,21242,1973,114,588,345,Sold,,,http://www.redfin.com/CA/Palos-Verdes-Estates/2322-Palos-Verdes-Dr-W-90274/unit-103/home/7725824,CRMLS,PV19186193,N,Y,33.7746048,-118.416468
PAST SALE,December-5-2019,Single Family Residential,613 Yarmouth Rd,Palos Verdes Estates,CA,90274,1321600,3,2.25,160 - Lunada Bay/Margate,1834,7713,1948,51,721,,Sold,,,http://www.redfin.com/CA/Palos-Verdes-Estates/613-Yarmouth-Rd-90274/home/7724729,CRMLS,SB19091536,N,Y,33.7757648,-118.4201646
PAST SALE,October-8-2019,Single Family Residential,2741 Palos Verdes Dr N,Palos Verdes Estates,CA,90274,1604000,3,2.0,164 - Valmonte,2000,7848,1956,109,802,,Sold,,,http://www.redfin.com/CA/Palos-Verdes-Estates/2741-Palos-Verdes-Dr-N-90274/home/7723066,CRMLS,PV19034141,N,Y,33.8023737,-118.3833788
PAST SALE,May-25-2018,Condo/Co-op,2322 W Palos Verdes Dr,Palos Verdes Estates,CA,90274,675000,2,1.75,160 - Lunada Bay/Margate,1171,,1973,610,576,345,Sold,,,http://www.redfin.com/CA/Palos-Verdes-Estates/2322-Palos-Verdes-Dr-W-90274/unit-107/home/7725828,CRMLS,PV18041786,N,Y,33.7746048,-118.416468
PAST SALE,December-19-2019,Single Family Residential,2548 Via Anita,Palos Verdes Estates,CA,90274,1371000,3,2.0,164 - Valmonte,1590,7205,1954,37,862,,Sold,,,http://www.redfin.com/CA/Palos-Verdes-Estates/2548-Via-Anita-90274/home/7723345,CRMLS,SB19246283,N,Y,33.8027092,-118.3862089
