SALE TYPE,SOLD DATE,PROPERTY TYPE,ADDRESS,CITY,STATE OR PROVINCE,ZIP OR POSTAL CODE,PRICE,BEDS,BATHS,LOCATION,SQUARE FEET,LOT SIZE,YEAR BUILT,DAYS ON MARKET,$/SQUARE FEET,HOA/MONTH,STATUS,NEXT OPEN HOUSE START TIME,NEXT OPEN HOUSE END TIME,URL (SEE http://www.redfin.com/buy-a-home/comparative-market-analysis FOR INFO ON PRICING),SOURCE,MLS#,FAVORITE,INTERESTED,LATITUDE,LONGITUDE
PAST SALE,September-24-2018,Single Family Residential,23108 Greenwood Ave,Torrance,CA,90505,1108000,4,2.0,127 - South East Torrance - West,1763,6220,1965,500,628,,Sold,,,http://www.redfin.com/CA/Torrance/23108-Greenwood-Ave-90505/home/7664674,CRMLS,SB18192382,N,Y,33.8172626,-118.3344832
PAST SALE,September-12-2019,Single Family Residential,5114 Lenore St,Torrance,CA,90503,1000000,4,2.0,130 - Southwood,1473,6794,1956,147,679,,Sold,,,http://www.redfin.com/CA/Torrance/5114-Lenore-St-90503/home/7711166,CRMLS,SB19149994,N,Y,33.8327906,-118.3675384
PAST SALE,July-3-2019,Single Family Residential,1850 W 186th St,Torrance,CA,90504,960000,4,3.0,133 - N Torrance - East,2076,6410,1968,218,462,,Sold,,,http://www.redfin.com/CA/Torrance/1850-186th-St-90504/home/6593038,CRMLS,SB19125367,N,Y,33.8617476,-118.3102813
PAST SALE,December-4-2018,Single Family Residential,3246 El Dorado St,Torrance,CA,90503,1150000,4,3.5,126 - Central Torrance,3065,12766,1955,429,375,,Sold,,,http://www.redfin.com/CA/Torrance/3246-El-Dorado-St-90503/home/7655755,CRMLS,SB18232675,N,Y,33.8339831,-118.3437141
PAST SALE,December-24-2019,Single Family Residential,22504 Biak Ct,Torrance,CA,90505,1580000,4,3.5,129 - South Torrance,3239,6802,1990,44,488,,Sold,,,http://www.redfin.com/CA/Torrance/22504-Biak-Ct-90505/home/7717085,CRMLS,PW19264103,N,Y,33.824187,-118.3640616
PAST SALE,August-8-2019,Single Family Residential,25604 Amber Leaf Rd,Torrance,CA,90505,1260000,4,3.5,125 - Walteria,2614,6103,1976,182,482,,Sold,,,http://www.redfin.com/CA/Torrance/25604-Amberleaf-Rd-90505/home/7727925,CRMLS,PV19102097,N,Y,33.7910083,-118.3376339
PAST SALE,April-9-2019,Single Family Residential,2713 Normallin St,Torrance,CA,90505,1190000,4,1.75,125 - Walteria,1978,5097,1995,303,602,,Sold,,,http://www.redfin.com/CA/Torrance/2713-Normallin-St-90505/home/7721467,CRMLS,SB19017390,N,Y,33.792014,-118.3355334
PAST SALE,June-21-2018,Single Family Residential,25908 Matfield Dr,Torrance,CA,90505,1000000,4,3.0,125 - Walteria,2390,12549,1955,595,418,,Sold,,,http://www.redfin.com/CA/Torrance/25908-Matfield-Dr-90505/home/7721941,CRMLS,SB18074312,N,Y,33.7871814,-118.3344832
PAST SALE,September-11-2019,Single Family Residential,4502 Greenmeadows Ave,Torrance,CA,90505,1200000,4,2.25,128 - Hollywood Riviera,1864,5776,1953,148,644,,Sold,,,http://www.redfin.com/CA/Torrance/4502-Greenmeadows-Ave-90505/home/7719609,CRMLS,SB19161449,N,Y,33.8083825,-118.3627616
PAST SALE,August-15-2019,Single Family Residential,817 Calle Miramar,Redondo Beach,CA,90277,2160000,4,3.5,128 - Hollywood Riviera,2406,7616,1954,175,898,,Sold,,,http://www.redfin.com/CA/Redondo-Beach/817-Calle-Miramar-90277/home/7708403,CRMLS,SB18241497,N,Y,33.8093647,-118.3788946
PAST SALE,August-28-2018,Single Family Residential,415 Via Mesa Grande,Torrance,CA,90277,1425000,4,2.0,128 - Hollywood Riviera,1503,7328,1954,527,948,,Sold,,,http://www.redfin.com/CA/Redondo-Beach/415-Via-Mesa-Grande-90277/home/7707988,CRMLS,SB18170995,N,Y,33.8054228,-118.3849765
PAST SALE,June-8-2018,Single Family Residential,26301 Delos Dr,Torrance,CA,90505,1048125,4,2.25,125 - Walteria,2929,6125,1955,608,358,,Sold,,,http://www.redfin.com/CA/Torrance/26301-Delos-Dr-90505/home/7721727,CRMLS,SB18090673,N,Y,33.7825496,-118.3337527
PAST SALE,May-1-2018,Single Family Residential,820 Calle De Arboles,Redondo Beach,CA,90277,2375000,4,4.0,128 - Hollywood Riviera,3337,6206,1948,646,712,,Sold,,,http://www.redfin.com/CA/Redondo-Beach/820-Calle-de-Arboles-90277/home/7708891,CRMLS,SB18019370,N,Y,33.8043522,-118.3770695
PAST SALE,January-25-2019,Single Family Residential,410 Paseo De La Playa,Redondo Beach,CA,90277,4200000,4,3.75,128 - Hollywood Riviera,4000,6511,2015,377,1050,,Sold,,,http://www.redfin.com/CA/Redondo-Beach/410-Paseo-De-La-Playa-90277/home/7707517,CRMLS,SB18215854,N,Y,33.8105949,-118.3902715
PAST SALE,May-16-2018,Single Family Residential,2889 Plaza Del Amo #703,Torrance,CA,90503,908000,4,2.5,126 - Central Torrance,2000,2120,2003,631,454,175,Sold,,,http://www.redfin.com/CA/Torrance/2889-Plaza-del-Amo-90503/unit-703/home/8121793,CRMLS,PV18082323,N,Y,33.8283556,-118.3369568
PAST SALE,April-16-2018,Single Family Residential,2656 Woodbury Dr,Torrance,CA,90503,985000,4,2.75,126 - Central Torrance,2534,202825,1987,661,389,300,Sold,,,http://www.redfin.com/CA/Torrance/2656-Woodbury-Dr-90503/home/7653849,CRMLS,PV18058733,N,Y,33.826164,-118.332995
PAST SALE,September-20-2018,Single Family Residential,1017 Kornblum Ave,Torrance,CA,90503,980000,4,2.0,126 - Central Torrance,2023,6207,1951,504,484,,Sold,,,http://www.redfin.com/CA/Torrance/1017-Kornblum-Ave-90503/home/7650150,CRMLS,SB18191220,N,Y,33.8374766,-118.3376795
PAST SALE,April-25-2018,Single Family Residential,5301 Towers St,Torrance,CA,90503,1330000,4,3.0,131 - West Torrance,2573,5196,1954,652,517,,Sold,,,http://www.redfin.com/CA/Torrance/5301-Towers-St-90503/home/7713874,CRISNet,SR18046401,N,Y,33.8558445,-118.368907
PAST SALE,November-19-2019,Single Family Residential,2521 Armour Ln,Redondo Beach,CA,90278,1000000,4,2.0,153 - N Redondo Bch/El Nido,1824,5281,1953,79,548,,Sold,,,http://www.redfin.com/CA/Redondo-Beach/2521-Armour-Ln-90278/home/6696982,CRMLS,SB19163061,N,Y,33.8593286,-118.363075
PAST SALE,November-1-2019,Single Family Residential,1010 Firmona Ave,Redondo Beach,CA,90278,1150000,4,2.0,153 - N Redondo Bch/El Nido,2303,8131,1955,97,499,,Sold,,,http://www.redfin.com/CA/Redondo-Beach/1010-Firmona-Ave-90278/home/6573861,CRMLS,SB19217581,N,Y,33.86357,-118.3590469
PAST SALE,May-24-2019,Single Family Residential,2618 W 180th St,Torrance,CA,90504,925000,4,3.0,133 - N Torrance - East,1907,8010,1956,258,485,,Sold,,,http://www.redfin.com/CA/Torrance/2618-180th-St-90504/home/6592220,CRMLS,SB19086275,N,Y,33.8677254,-118.3230448
PAST SALE,January-10-2020,Single Family Residential,16823 Glenburn Ave,Torrance,CA,90504,910000,4,3.0,132 - N Torrance - West,2143,5308,1954,27,425,,Sold,,,http://www.redfin.com/CA/Torrance/16823-Glenburn-Ave-90504/home/6586728,CRMLS,SB19228787,N,Y,33.8771805,-118.3306934
PAST SALE,August-8-2019,Single Family Residential,21135 S Normandie Ave,Torrance,CA,90501,956803,4,4.0,122 - Harbor Gateway,2683,4536,2018,182,357,139,Sold,,,http://www.redfin.com/CA/Torrance/21135-Normandie-Ave-90501/home/110088495,CRMLS,SW18280632,N,Y,33.8369561,-118.2994027
PAST SALE,April-23-2018,Single Family Residential,1004 Beech Ave,Torrance,CA,90501,900000,4,2.75,134 - Old Torrance,2375,5551,1937,654,379,,Sold,,,http://www.redfin.com/CA/Torrance/1004-Beech-Ave-90501/home/7650872,CRMLS,SB17255043,N,Y,33.8377588,-118.327223
PAST SALE,September-24-2019,Single Family Residential,2587 Bayport Dr #4,Torrance,CA,90503,960000,4,2.5,126 - Central Torrance,2534,191972,1987,135,379,300,Sold,,,http://www.redfin.com/CA/Torrance/2587-Bayport-Dr-90503/unit-4/home/7653762,CRMLS,SB19200550,N,Y,33.826333,-118.331265
PAST SALE,April-22-2019,Single Family Residential,5513 Lorna St,Torrance,CA,90503,1265000,4,3.0,131 - West Torrance,2603,3675,1993,290,486,384,Sold,,,http://www.redfin.com/CA/Torrance/5513-Lorna-St-90503/home/7712421,CRMLS,SB19062437,N,Y,33.8400628,-118.3734152
PAST SALE,January-29-2019,Single Family Residential,408 N Prospect (Service Street) Ave,Redondo Beach,CA,90277,1154000,4,2.25,155 - S Redondo Bch N of Torrance Bl,1760,2805,1965,373,656,,Sold,,,http://www.redfin.com/CA/Redondo-Beach/408-N-Prospect-Ave-90277/home/7699937,CRMLS,DW18279595,N,Y,33.8492333,-118.377352
PAST SALE,July-26-2019,Single Family Residential,19403 Redbeam Ave,Torrance,CA,90503,1220000,4,2.75,131 - West Torrance,2111,6368,1969,195,578,,Sold,,,http://www.redfin.com/CA/Torrance/19403-Redbeam-Ave-90503/home/7713766,CRMLS,SB19153339,N,Y,33.8538186,-118.3762122
PAST SALE,October-30-2018,Single Family Residential,128 via los miradores,Redondo Beach,CA,90277,1620000,4,2.25,128 - Hollywood Riviera,2455,8928,1956,464,660,,Sold,,,http://www.redfin.com/CA/Redondo-Beach/128-Via-Los-Miradores-90277/home/7709247,CRMLS,PV18219297,N,Y,33.8131073,-118.3760668
PAST SALE,December-7-2018,Single Family Residential,144 Via Los Miradores,Redondo Beach,CA,90277,1399000,4,2.5,128 - Hollywood Riviera,2000,6925,1953,426,700,,Sold,,,http://www.redfin.com/CA/Redondo-Beach/144-Via-Los-Miradores-90277/home/7709326,CRMLS,SB18143758,N,Y,33.812331,-118.3765526
PAST SALE,September-12-2019,Single Family Residential,5327 Reese Rd,Torrance,CA,90505,1550000,4,2.0,129 - South Torrance,1960,10951,1947,147,791,,Sold,,,http://www.redfin.com/CA/Torrance/5327-Reese-Rd-90505/home/7710160,CRMLS,SB19160688,N,Y,33.8192267,-118.3706427
PAST SALE,July-3-2019,Single Family Residential,3434 W 227th Pl,Torrance,CA,90505,910000,4,2.0,127 - South East Torrance - West,1644,5301,1954,218,554,,Sold,,,http://www.redfin.com/CA/Torrance/3434-W-227th-Pl-90505/home/7657942,CRMLS,WS19133983,N,Y,33.8210745,-118.3461406
PAST SALE,January-9-2019,Single Family Residential,444 Calle De Castellana,Redondo Beach,CA,90277,1825000,4,3.5,128 - Hollywood Riviera,2995,6939,1952,393,609,,Sold,,,http://www.redfin.com/CA/Redondo-Beach/444-Cll-De-Castellana-90277/home/7708538,CRMLS,PV18241268,N,Y,33.8083077,-118.3801128
PAST SALE,July-3-2018,Single Family Residential,24219 Los Codona Ave,Torrance,CA,90505,1323000,4,2.5,125 - Walteria,2761,6471,1998,583,479,,Sold,,,http://www.redfin.com/CA/Torrance/24219-Los-Codona-Ave-90505/home/7720344,CRMLS,PV18047184,N,Y,33.8035999,-118.3535684
PAST SALE,September-28-2018,Single Family Residential,21625 Linda Dr,Torrance,CA,90503,1318700,4,2.5,130 - Southwood,2108,6498,1955,496,626,,Sold,,,http://www.redfin.com/CA/Torrance/21625-Linda-Dr-90503/home/7710564,CRMLS,SB18206849,N,Y,33.8318318,-118.3704144
PAST SALE,April-2-2019,Single Family Residential,3862 Tiffany Ln,Torrance,CA,90505,1300000,4,3.0,129 - South Torrance,2699,6000,1977,310,482,,Sold,,,http://www.redfin.com/CA/Torrance/3862-Tiffany-Ln-90505/home/7658117,CRMLS,SB19020595,N,Y,33.8199783,-118.3539793
PAST SALE,June-12-2018,Single Family Residential,23304 Ocean Ave,Torrance,CA,90505,1125000,4,2.75,129 - South Torrance,2415,6001,1966,604,466,,Sold,,,http://www.redfin.com/CA/Torrance/23304-Ocean-Ave-90505/home/7664179,CRMLS,SB18095232,N,Y,33.8152384,-118.3540934
PAST SALE,July-20-2018,Single Family Residential,21076 Tomlee Ave,Torrance,CA,90503,1250000,4,3.0,131 - West Torrance,2679,3676,1991,566,467,350,Sold,,,http://www.redfin.com/CA/Torrance/21076-Tomlee-Ave-90503/home/7712399,CRMLS,SB18180948,N,Y,33.8390925,-118.3736321
PAST SALE,June-18-2018,Single Family Residential,3601 Via La Selva,Palos Verdes Estates,CA,90274,2425000,4,4.0,164 - Valmonte,3020,7405,2007,598,803,,Sold,,,http://www.redfin.com/CA/Palos-Verdes-Estates/3601-Via-La-Selva-90274/home/17240540,CRMLS,PV18087640,N,Y,33.8031926,-118.3695014
PAST SALE,March-8-2019,Single Family Residential,3605 Via La Selva,Palos Verdes Estates,CA,90274,2369000,4,4.0,164 - Valmonte,2727,6836,2007,335,869,,Sold,,,http://www.redfin.com/CA/Palos-Verdes-Estates/3605-Via-La-Selva-90274/home/17225668,CRMLS,PV19010488,N,Y,33.8031694,-118.3692732
PAST SALE,February-19-2019,Single Family Residential,3340 Via La Selva,Palos Verdes Estates,CA,90274,2100000,4,3.25,164 - Valmonte,2856,6919,1952,352,735,,Sold,,,http://www.redfin.com/CA/Palos-Verdes-Estates/3340-Via-La-Selva-90274/home/7722891,CRMLS,SB18258629,N,Y,33.8033112,-118.37256
PAST SALE,November-15-2019,Single Family Residential,4418 Paseo De Las Tortugas,Torrance,CA,90505,1015000,4,2.0,128 - Hollywood Riviera,1604,7927,1956,83,633,,Sold,,,http://www.redfin.com/CA/Torrance/4418-Pso-De-Las-Tortugas-90505/home/7720134,CRMLS,SB19230389,N,Y,33.8043845,-118.3626535
PAST SALE,December-12-2019,Single Family Residential,3849 Paseo De Las Tortugas,Torrance,CA,90505,1399000,4,2.5,128 - Hollywood Riviera,2277,7131,1971,56,614,,Sold,,,http://www.redfin.com/CA/Torrance/3849-Pso-De-Las-Tortugas-90505/home/7720751,CRMLS,SB19149532,N,Y,33.7999524,-118.3548467
PAST SALE,February-27-2019,Single Family Residential,522 Susana Ave,Redondo Beach,CA,90277,1215000,4,3.0,156 - S Redondo Bch S of Torrance Bl,1816,5394,1965,344,669,,Sold,,,http://www.redfin.com/CA/Redondo-Beach/522-Susana-Ave-90277/home/7704128,CRMLS,SB18212930,N,Y,33.8335884,-118.3742947
PAST SALE,September-21-2018,Single Family Residential,21841 Ocean Ave,Torrance,CA,90503,1450000,4,3.5,131 - West Torrance,2853,5406,2015,503,508,,Sold,,,http://www.redfin.com/CA/Torrance/21841-Ocean-Ave-90503/home/7657318,CRMLS,SB18188147,N,Y,33.8294338,-118.3553718
PAST SALE,March-5-2019,Single Family Residential,4218 Cathann St,Torrance,CA,90503,1417000,4,3.0,130 - Southwood,2993,5245,1956,338,473,,Sold,,,http://www.redfin.com/CA/Torrance/4218-Cathann-St-90503/home/7657407,CRMLS,SB19015900,N,Y,33.8266965,-118.3579056
PAST SALE,June-29-2018,Single Family Residential,22025 Ladeene Ave,Torrance,CA,90503,1170000,4,3.25,130 - Southwood,2508,242629200,1956,587,467,,Sold,,,http://www.redfin.com/CA/Torrance/22025-Ladeene-Ave-90503/home/7657489,CRMLS,SB18089261,N,Y,33.8275561,-118.3583165
PAST SALE,January-25-2019,Single Family Residential,5021 Cathann St,Torrance,CA,90503,977000,4,2.5,130 - Southwood,1764,6665,1955,377,554,,Sold,,,http://www.redfin.com/CA/Torrance/5021-Cathann-St-90503/home/7711653,CRMLS,PV18288152,N,Y,33.8285632,-118.366808
PAST SALE,August-1-2018,Single Family Residential,22305 Ladeene Ave,Torrance,CA,90505,975000,4,2.0,129 - South Torrance,1537,5710,1953,554,634,,Sold,,,http://www.redfin.com/CA/Torrance/22305-Ladeene-Ave-90505/home/7717599,CRMLS,SB18145906,N,Y,33.8258609,-118.3583621
PAST SALE,June-25-2019,Single Family Residential,4713 Jacques St,Torrance,CA,90503,1068000,4,3.0,130 - Southwood,1650,5652,1955,226,647,,Sold,,,http://www.redfin.com/CA/Torrance/4713-Jacques-St-90503/home/7711363,CRMLS,OC19095300,N,Y,33.8299912,-118.3636579
PAST SALE,September-20-2019,Single Family Residential,4927 Jacques St,Torrance,CA,90503,900000,4,2.0,130 - Southwood,2114,5485,1955,139,426,,Sold,,,http://www.redfin.com/CA/Torrance/4927-Jacques-St-90503/home/7711355,CRMLS,SB19194532,N,Y,33.8303594,-118.3650732
PAST SALE,June-15-2018,Single Family Residential,23536 Ladeene Ave,Torrance,CA,90505,990000,4,2.0,129 - South Torrance,2002,6311,1962,601,495,,Sold,,,http://www.redfin.com/CA/Torrance/23536-Ladeene-Ave-90505/home/7718578,CRMLS,SB18089018,N,Y,33.8117484,-118.3566101
PAST SALE,July-16-2019,Single Family Residential,23224 Ladeene Ave,Torrance,CA,90505,908000,4,2.0,129 - South Torrance,1636,7137,1961,205,555,,Sold,,,http://www.redfin.com/CA/Torrance/23224-Ladeene-Ave-90505/home/7718008,CRMLS,PW19118520,N,Y,33.8160537,-118.3574947
PAST SALE,September-5-2019,Single Family Residential,23242 Ladeene Ave,Torrance,CA,90505,925000,4,1.75,129 - South Torrance,1724,7081,1961,154,537,,Sold,,,http://www.redfin.com/CA/Torrance/23242-Ladeene-Ave-90505/home/7718011,CRMLS,SB19182580,N,Y,33.8155949,-118.3570838
PAST SALE,July-17-2019,Single Family Residential,315 Via San Sebastian,Torrance,CA,90277,1450000,4,2.75,128 - Hollywood Riviera,1945,7211,1954,204,746,,Sold,,,http://www.redfin.com/CA/Redondo-Beach/315-Via-San-Sebastian-90277/home/7707959,CRMLS,SB19099577,N,Y,33.8061403,-118.387681
PAST SALE,January-15-2019,Single Family Residential,4337 W 190th St,Torrance,CA,90504,1075000,4,3.5,132 - N Torrance - West,3060,99815,2006,387,351,175,Sold,,,http://www.redfin.com/CA/Torrance/4337-W-190th-St-90504/home/12285714,CRMLS,SB18279803,N,Y,33.8588456,-118.3499951
PAST SALE,October-19-2018,Single Family Residential,4345 W 190th St,Torrance,CA,90504,985000,4,4.0,132 - N Torrance - West,3060,99815,2006,475,322,175,Sold,,,http://www.redfin.com/CA/Torrance/4345-W-190th-St-90504/home/12294266,CRMLS,RS18163394,N,Y,33.8590859,-118.3498523
PAST SALE,May-30-2018,Single Family Residential,2889 Plaza Del Amo #121,Torrance,CA,90503,1010000,4,3.0,126 - Central Torrance,2806,2276,2002,617,360,175,Sold,,,http://www.redfin.com/CA/Torrance/2889-Plaza-del-Amo-90503/unit-121/home/8122801,CRMLS,PV18081028,N,Y,33.8280015,-118.3359416
PAST SALE,June-1-2019,Single Family Residential,4626 Deelane St,Torrance,CA,90503,1200000,4,3.0,131 - West Torrance,2213,6501,1974,250,542,,Sold,,,http://www.redfin.com/CA/Torrance/4626-Deelane-St-90503/home/7715163,CRMLS,SB19092857,N,Y,33.8519672,-118.3567186
PAST SALE,June-28-2019,Single Family Residential,2473 251st St,Lomita,CA,90717,1000000,4,3.5,121 - Lomita,3500,5751,1991,223,286,,Sold,,,http://www.redfin.com/CA/Lomita/2473-251st-St-90717/home/7661582,CRMLS,SB19087916,N,Y,33.7969917,-118.3279536
PAST SALE,December-3-2019,Single Family Residential,23204 Elm Ave,Torrance,CA,90505,950000,4,2.0,South East Torrance - West,2338,6772,1965,65,406,,Sold,,,http://www.redfin.com/CA/Torrance/23204-Elm-Ave-90505/home/7664883,TheMLS,19-501592,N,Y,33.8156489,-118.3321089
PAST SALE,August-13-2019,Single Family Residential,5 McCarrell Ranch Rd,Rolling Hills Estates,CA,90274,3810718,4,4.5,165 - PV Dr North,3988,11331,2019,177,956,398,Sold,,,http://www.redfin.com/CA/ROLLING-HILLS-EST/Unknown-Unknown/home/142982483,CRMLS,PV19166825,N,Y,33.784271,-118.329609
PAST SALE,April-23-2019,Single Family Residential,20456 Roslin Ave,Torrance,CA,90503,900000,4,2.5,126 - Central Torrance,2237,6051,1969,289,402,,Sold,,,http://www.redfin.com/CA/Torrance/20456-Roslin-Ave-90503/home/7715547,CRMLS,SB19066785,N,Y,33.8453417,-118.3508822
PAST SALE,April-10-2018,Single Family Residential,19939 Linda Dr,Torrance,CA,90503,1450000,4,2.25,131 - West Torrance,2284,5237,1969,667,635,,Sold,,,http://www.redfin.com/CA/Torrance/19939-Linda-Dr-90503/home/7713780,CRMLS,SB18048461,N,Y,33.8506527,-118.3747532
PAST SALE,November-2-2018,Single Family Residential,20802 Christine Ave,Torrance,CA,90503,949000,4,2.0,West Torrance,1583,7250,1959,461,599,,Sold,,,http://www.redfin.com/CA/Torrance/20802-Christine-Ave-90503/home/7712045,VCRDS,218010647,N,Y,33.8415582,-118.3731991
PAST SALE,January-9-2020,Single Family Residential,19433 Sturgess Dr,Torrance,CA,90503,1249000,4,1.75,131 - West Torrance,1803,7591,1956,28,693,,Sold,,,http://www.redfin.com/CA/Torrance/19433-Sturgess-Dr-90503/home/7713410,CRMLS,SB19275282,N,Y,33.8527655,-118.3694101
PAST SALE,June-15-2018,Single Family Residential,19707 Redbeam Ave,Torrance,CA,90503,1400000,4,3.5,West Torrance,2284,5148,1969,601,613,,Sold,,,http://www.redfin.com/CA/Torrance/19707-Redbeam-Ave-90503/home/7713742,TheMLS,18-336706,N,Y,33.8521448,-118.3758421
PAST SALE,May-29-2019,Single Family Residential,22646 Benner Ave,Torrance,CA,90505,1226001,4,2.75,127 - South East Torrance - West,1991,5843,1963,253,616,,Sold,,,http://www.redfin.com/CA/Torrance/22646-Benner-Ave-90505/home/7658835,CRMLS,SB19086457,N,Y,33.8206921,-118.3371999
PAST SALE,March-28-2018,Single Family Residential,23068 Maple Ave,Torrance,CA,90505,1205000,4,3.75,127 - South East Torrance - West,2697,314212,1999,680,447,105,Sold,,,http://www.redfin.com/CA/Torrance/23068-Maple-Ave-90505/home/8094257,CRMLS,SB18028283,N,Y,33.8183701,-118.3408251
PAST SALE,July-27-2018,Single Family Residential,2921 W 229th St,Torrance,CA,90505,1150000,4,2.5,127 - South East Torrance - West,2337,6310,1963,559,492,,Sold,,,http://www.redfin.com/CA/Torrance/2921-W-229th-St-90505/home/7659021,CRMLS,PV18154323,N,Y,33.8204267,-118.3393232
PAST SALE,January-3-2020,Single Family Residential,4731 Konya Dr,Torrance,CA,90503,1150000,4,2.75,131 - West Torrance,2100,7037,1960,34,548,,Sold,,,http://www.redfin.com/CA/Torrance/4731-Konya-Dr-90503/home/7712826,CRMLS,SB19247055,N,Y,33.848025,-118.3644797
PAST SALE,May-16-2019,Single Family Residential,23019 Benner Ct,Torrance,CA,90505,1000000,4,3.0,127 - South East Torrance - West,1925,6452,1963,266,519,,Sold,,,http://www.redfin.com/CA/Torrance/23019-Benner-Ct-90505/home/7658882,CRMLS,SB19070591,N,Y,33.8178957,-118.3377307
PAST SALE,March-21-2018,Single Family Residential,4907 Carmelynn St,Torrance,CA,90503,1075000,4,3.5,131 - West Torrance,3060,5735,1989,687,351,,Sold,,,http://www.redfin.com/CA/Torrance/4907-Carmelynn-St-90503/home/7715418,CRMLS,IV17273575,N,Y,33.8492813,-118.3613753
PAST SALE,March-29-2018,Single Family Residential,2435 W 233rd St,Torrance,CA,90501,919000,4,2.5,135 - South East Torrance - East,2664,6246,1956,679,345,,Sold,,,http://www.redfin.com/CA/Torrance/2435-W-233rd-St-90505/home/7659766,CRMLS,SB17263658,N,Y,33.8144511,-118.3266979
PAST SALE,August-17-2018,Single Family Residential,22622 Fern Ave,Torrance,CA,90505,930000,4,2.75,127 - South East Torrance - West,1904,6001,1960,538,488,,Sold,,,http://www.redfin.com/CA/Torrance/22622-Fern-Ave-90505/home/7664515,CRMLS,PV18160484,N,Y,33.8201918,-118.3320632
PAST SALE,July-24-2019,Single Family Residential,2862 Sunnyglen Rd,Torrance,CA,90505,1251000,4,4.0,Walteria,2501,6011,1976,197,500,,Sold,,,http://www.redfin.com/CA/Torrance/2862-Sunnyglen-Rd-90505/home/7728042,TheMLS,19-474546,N,Y,33.7907646,-118.3403048
PAST SALE,August-2-2019,Single Family Residential,19513 Hinsdale Ave,Torrance,CA,90503,1200000,4,3.0,131 - West Torrance,2200,6070,1955,188,545,,Sold,,,http://www.redfin.com/CA/Torrance/19513-Hinsdale-Ave-90503/home/7713912,CRMLS,SB19160503,N,Y,33.852815,-118.3674471
PAST SALE,June-7-2018,Single Family Residential,5653 Alix Ct,Redondo Beach,CA,90277,1435000,4,3.25,S. Redondo Beach North of Torrance Blvd,2943,6981,2002,609,488,166,Sold,,,http://www.redfin.com/CA/Redondo-Beach/5653-Alix-Ct-90277/home/105479993,TheMLS,18-339430,N,Y,33.84835,-118.3772
PAST SALE,December-6-2019,Single Family Residential,20120 Tomlee Ave,Torrance,CA,90503,1050000,4,2.75,131 - West Torrance,2111,5526,1970,62,497,,Sold,,,http://www.redfin.com/CA/Torrance/20120-Tomlee-Ave-90503/home/7713097,CRMLS,SB19234199,N,Y,33.8489521,-118.376713
PAST SALE,April-24-2019,Single Family Residential,21816 Barbara St,Torrance,CA,90503,1435000,4,3.0,130 - Southwood,2550,8825,1955,288,563,,Sold,,,http://www.redfin.com/CA/Torrance/21816-Barbara-St-90503/home/7710724,CRMLS,PV19051046,N,Y,33.8302591,-118.3723774
PAST SALE,July-18-2018,Single Family Residential,2438 W 237th Pl,Torrance,CA,90501,1075000,4,3.0,135 - South East Torrance - East,3495,5253,1990,568,308,,Sold,,,http://www.redfin.com/CA/Torrance/2438-237th-Pl-90501/home/7660067,CRMLS,SB18132439,N,Y,33.8088817,-118.3265153
PAST SALE,October-16-2018,Single Family Residential,2155 W 235th Pl,Torrance,CA,90501,927900,4,3.0,135 - South East Torrance - East,2386,5421,1974,478,389,,Sold,,,http://www.redfin.com/CA/Torrance/2155-235th-Pl-90501/home/7660537,CRMLS,SB18217106,N,Y,33.8122491,-118.3191177
PAST SALE,November-15-2018,Single Family Residential,2889 Plaza Del Amo #131,Torrance,CA,90503,1015000,4,3.0,126 - Central Torrance,2806,2321,2002,448,362,175,Sold,,,http://www.redfin.com/CA/Torrance/2889-Plaza-del-Amo-90503/unit-131/home/8121869,CRMLS,SB18241549,N,Y,33.828242,-118.3352992
PAST SALE,November-15-2018,Single Family Residential,23217 Los Codona Ave,Torrance,CA,90505,1305000,4,3.5,129 - South Torrance,2658,6001,1965,448,491,,Sold,,,http://www.redfin.com/CA/Torrance/23217-Los-Codona-Ave-90505/home/7664211,CRMLS,SB18217694,N,Y,33.8155574,-118.352815
PAST SALE,July-26-2018,Single Family Residential,23300 Audrey Ave,Torrance,CA,90505,1070000,4,2.75,129 - South Torrance,2170,6007,1966,560,493,,Sold,,,http://www.redfin.com/CA/Torrance/23300-Audrey-Ave-90505/home/7664221,CRMLS,PV18132227,N,Y,33.8152687,-118.3532488
PAST SALE,March-13-2018,Single Family Residential,4415 Via Azalea,Palos Verdes Estates,CA,90274,1560000,4,3.0,164 - Valmonte,2971,10249,1964,695,525,,Sold,,,http://www.redfin.com/CA/Palos-Verdes-Estates/4415-Via-Azalea-90274/home/7722460,CRMLS,PV17103249,N,Y,33.798467,-118.355737
PAST SALE,November-27-2019,Single Family Residential,23028 Kent Ave,Torrance,CA,90505,995000,4,3.0,129 - South Torrance,2434,6051,1967,71,409,,Sold,,,http://www.redfin.com/CA/Torrance/23028-Kent-Ave-90505/home/7718067,CRMLS,PV19243395,N,Y,33.8179417,-118.3571254
PAST SALE,February-16-2018,Single Family Residential,23542 Ladeene Ave,Torrance,CA,90505,980168,4,2.0,129 - South Torrance,2090,6311,1962,720,469,,Sold,,,http://www.redfin.com/CA/Torrance/23542-Ladeene-Ave-90505/home/7718579,CRMLS,SB17276928,N,Y,33.81155,-118.3565816
PAST SALE,May-2-2018,Single Family Residential,4010 W 234th Pl,Torrance,CA,90505,938000,4,2.0,South Torrance,1676,6016,1962,645,560,,Sold,,,http://www.redfin.com/CA/Torrance/4010-W-234th-Pl-90505/home/7718564,TheMLS,18-326618,N,Y,33.8133189,-118.3557598
PAST SALE,,Single Family Residential,23541 Adolph Ave,Torrance,CA,90505,948000,4,2.0,,2152,5932,1962,,441,,,,,http://www.redfin.com/CA/Torrance/23541-Adolph-Ave-90505/home/7718583,,,N,Y,33.8116911,-118.3561365
PAST SALE,April-24-2019,Single Family Residential,22622 Ladeene Ave,Torrance,CA,90505,920000,4,3.0,129 - South Torrance,1616,5420,1953,288,569,,Sold,,,http://www.redfin.com/CA/Torrance/22622-Ladeene-Ave-90505/home/7717662,CRMLS,SB19046272,N,Y,33.8230307,-118.3578143
PAST SALE,July-19-2019,Single Family Residential,3649 Navajo Pl,Palos Verdes Estates,CA,90274,3600000,4,4.0,164 - Valmonte,3908,13384,2008,202,921,,Sold,,,http://www.redfin.com/CA/Palos-Verdes-Estates/3649-Navajo-Pl-90274/home/7722835,CRMLS,PV18267050,N,Y,33.8034189,-118.3673101
PAST SALE,December-29-2018,Single Family Residential,3633 W 228th St,Torrance,CA,90505,1085000,4,3.0,127 - South East Torrance - West,2536,6420,1964,404,428,,Sold,,,http://www.redfin.com/CA/Torrance/3633-W-228th-St-90505/home/7657628,CRMLS,SB18226204,N,Y,33.8207874,-118.3488886
PAST SALE,May-23-2018,Single Family Residential,4521 Via Corona,Torrance,CA,90505,1530000,4,2.25,128 - Hollywood Riviera,2612,9278,1968,624,586,,Sold,,,http://www.redfin.com/CA/Torrance/4521-Via-Corona-90505/home/7720257,CRMLS,PV18081631,N,Y,33.8053449,-118.3637958
PAST SALE,April-27-2018,Single Family Residential,4602 Paseo De Las Tortugas,Torrance,CA,90505,1271000,4,1.75,128 - Hollywood Riviera,1604,8865,1956,650,792,,Sold,,,http://www.redfin.com/CA/Torrance/4602-Pso-De-Las-Tortugas-90505/home/7720115,CRMLS,PV18069535,N,Y,33.8044719,-118.3643711
PAST SALE,December-17-2019,Single Family Residential,4700 Paseo De Las Tortugas,Torrance,CA,90505,1225000,4,2.0,128 - Hollywood Riviera,1604,9292,1956,51,764,,Sold,,,http://www.redfin.com/CA/Torrance/4700-Pso-De-Las-Tortugas-90505/home/7720071,CRMLS,SB19249835,N,Y,33.8047345,-118.3658949
PAST SALE,October-29-2019,Single Family Residential,23107 Audrey Ave,Torrance,CA,90505,1430000,4,4.5,129 - South Torrance,3696,8895,1990,100,387,,Sold,,,http://www.redfin.com/CA/Torrance/23107-Audrey-Ave-90505/home/7664109,CRMLS,SB19199638,N,Y,33.8174572,-118.3534771
PAST SALE,May-16-2019,Single Family Residential,2901 Oakwood Ln,Torrance,CA,90505,960000,4,3.0,125 - Walteria,1996,8727,1976,266,481,,Sold,,,http://www.redfin.com/CA/Torrance/2901-Oakwood-Ln-90505/home/7728065,CRMLS,PW19027490,N,Y,33.7881521,-118.3423367
PAST SALE,,Single Family Residential,3224 Cricklewood St,Torrance,CA,90505,949000,4,2.0,,1595,6837,1950,,595,,,,,http://www.redfin.com/CA/Torrance/3224-Cricklewood-St-90505/home/7720973,,,N,Y,33.7984495,-118.342702
PAST SALE,December-2-2019,Single Family Residential,3249 Whiffletree Ln,Torrance,CA,90505,1065000,4,2.0,125 - Walteria,2072,6894,1975,66,514,,Sold,,,http://www.redfin.com/CA/Torrance/3249-Whiffletree-Ln-90505/home/7727817,CRMLS,SB19234204,N,Y,33.7949221,-118.3448824
PAST SALE,May-25-2018,Single Family Residential,3711 W 227th St,Torrance,CA,90505,1023400,4,3.0,127 - South East Torrance - West,2569,6194,1954,622,398,,Sold,,,http://www.redfin.com/CA/Torrance/3711-W-227th-St-90505/home/7657679,CRMLS,SB18074856,N,Y,33.8224699,-118.3497789
PAST SALE,March-16-2018,Single Family Residential,4309 Via Azalea,Palos Verdes Estates,CA,90274,1575000,4,2.5,Valmonte,1924,10337,1956,692,819,,Sold,,,http://www.redfin.com/CA/Palos-Verdes-Estates/4309-Via-Azalea-90274/home/7722451,TheMLS,17-265686,N,Y,33.7988273,-118.3572664
PAST SALE,,Single Family Residential,3602 Blair Way,Torrance,CA,90505,1030000,4,3.0,,2423,9458,1976,,425,,,,,http://www.redfin.com/CA/Torrance/3602-Blair-Way-90505/home/7727738,,,N,Y,33.7973466,-118.3480896
PAST SALE,September-24-2019,Single Family Residential,3440 Cricklewood St,Torrance,CA,90505,1340000,4,3.0,125 - Walteria,2200,5070,2019,135,609,,Sold,,,http://www.redfin.com/CA/Torrance/3440-Cricklewood-St-90505/home/7721022,CRMLS,SB19149069,N,Y,33.8014978,-118.3464003
PAST SALE,July-24-2019,Single Family Residential,3108 Carolwood Ln,Torrance,CA,90505,1302500,4,3.0,125 - Walteria,2370,10978,1976,197,550,,Sold,,,http://www.redfin.com/CA/Torrance/3108-Carolwood-Ln-90505/home/7728208,CRMLS,SB19136299,N,Y,33.7910801,-118.3457154
PAST SALE,August-9-2019,Single Family Residential,3024 Glenwood Cir,Torrance,CA,90505,1205000,4,3.0,125 - Walteria,2302,8000,1976,181,523,,Sold,,,http://www.redfin.com/CA/Torrance/3024-Glenwood-Cir-90505/home/7728189,CRMLS,SB19105563,N,Y,33.790466,-118.3451219
PAST SALE,,Condo/Co-op,23060 Maple Ave,Torrance,CA,90505,1190000,4,4.0,,2697,,1999,,441,,,,,http://www.redfin.com/CA/Torrance/23060-Maple-Ave-90505/home/8094255,,,N,Y,33.8183701,-118.3408251
PAST SALE,February-22-2018,Single Family Residential,3014 Lazy Meadow Dr,Torrance,CA,90505,1052000,4,2.0,125 - Walteria,2429,6137,1975,714,433,,Sold,,,http://www.redfin.com/CA/Torrance/3014-Lazy-Meadow-Dr-90505/home/7728009,CRMLS,SB18004837,N,Y,33.7914174,-118.3417888
PAST SALE,August-17-2018,Single Family Residential,24413 Neece Ave,Torrance,CA,90505,1250000,4,3.75,125 - Walteria,2836,6397,1981,538,441,,Sold,,,http://www.redfin.com/CA/Torrance/24413-Neece-Ave-90505/home/7720650,CRMLS,PV18149287,N,Y,33.8012839,-118.3525639
PAST SALE,October-4-2019,Single Family Residential,3414 W 228th St,Torrance,CA,90505,1072000,4,3.0,127 - South East Torrance - West,2055,5301,1954,125,522,,Sold,,,http://www.redfin.com/CA/Torrance/3414-W-228th-St-90505/home/7657971,CRMLS,SB19191589,N,Y,33.8203243,-118.3452667
PAST SALE,June-6-2018,Single Family Residential,5614 Rockview Dr,Torrance,CA,90505,1080000,4,2.0,South Torrance,1739,4997,1952,610,621,,Sold,,,http://www.redfin.com/CA/Torrance/5614-Rockview-Dr-90505/home/7710000,TheMLS,18-317442,N,Y,33.8213796,-118.3725372
PAST SALE,March-16-2018,Single Family Residential,22614 Anza Ave,Torrance,CA,90505,1025000,4,2.0,129 - South Torrance,1994,5181,1953,692,514,,Sold,,,http://www.redfin.com/CA/Torrance/22614-Anza-Ave-90505/home/7717733,CRMLS,SB18029610,N,Y,33.8231704,-118.3595035
PAST SALE,April-11-2018,Single Family Residential,620 Via Monte D'Oro,Redondo Beach,CA,90277,3500000,4,3.5,128 - Hollywood Riviera,3825,7060,2018,666,915,,Sold,,,http://www.redfin.com/CA/Redondo-Beach/620-Via-Monte-Doro-90277/home/7708778,CRMLS,SB18034328,N,Y,33.8065414,-118.3814616
PAST SALE,November-27-2018,Single Family Residential,225 Via Buena Ventura,Redondo Beach,CA,90277,2249000,4,4.0,128 - Hollywood Riviera,3031,7502,2012,436,742,,Sold,,,http://www.redfin.com/CA/Redondo-Beach/225-Via-Buena-Ventura-90277/home/7709484,CRMLS,PV18140458,N,Y,33.8140366,-118.3813708
PAST SALE,January-9-2020,Single Family Residential,2811 Dalemead St,Torrance,CA,90505,1310000,4,3.0,125 - Walteria,2651,5614,2004,28,494,,Sold,,,http://www.redfin.com/CA/Torrance/2811-Dalemead-St-90505/home/7721419,CRMLS,SB19244620,N,Y,33.7933257,-118.3372168
PAST SALE,April-12-2018,Single Family Residential,23547 Carlow Rd,Torrance,CA,90505,1038000,4,2.0,129 - South Torrance,2074,7102,1962,665,500,,Sold,,,http://www.redfin.com/CA/Torrance/23547-Carlow-Rd-90505/home/7718347,CRMLS,OC18063944,N,Y,33.8114119,-118.3618828
PAST SALE,,Single Family Residential,23305 Almarosa Ave,Torrance,CA,90505,980000,4,3.0,,2517,6711,1964,,389,,,,,http://www.redfin.com/CA/Torrance/23305-Almarosa-Ave-90505/home/7664870,,,N,Y,33.8147607,-118.3319719
PAST SALE,December-5-2019,Single Family Residential,23215 Almarosa Ave,Torrance,CA,90505,1220000,4,3.0,127 - South East Torrance - West,2517,6821,1964,63,485,,Sold,,,http://www.redfin.com/CA/Torrance/23215-Almarosa-Ave-90505/home/7664867,CRMLS,SB19251747,N,Y,33.815236,-118.3318349
PAST SALE,May-11-2018,Single Family Residential,258 Paseo De Granada,Redondo Beach,CA,90277,2400000,4,3.5,128 - Hollywood Riviera,3000,8730,2018,636,800,,Sold,,,http://www.redfin.com/CA/Redondo-Beach/258-Pso-De-Granada-90277/home/7708707,CRMLS,SB18057728,N,Y,33.8060179,-118.3748882
PAST SALE,June-5-2018,Single Family Residential,736 Calle De Arboles,Redondo Beach,CA,90277,1960000,4,3.0,128 - Hollywood Riviera,2928,5970,2008,611,669,,Sold,,,http://www.redfin.com/CA/Redondo-Beach/736-Calle-de-Arboles-90277/home/7708929,CRMLS,SB18074948,N,Y,33.8044187,-118.3787227
PAST SALE,January-6-2020,Single Family Residential,620 Calle Miramar,Redondo Beach,CA,90277,2351000,4,4.0,Hollywood Riviera,2707,7660,1951,31,868,,Sold,,,http://www.redfin.com/CA/Redondo-Beach/620-Calle-Miramar-90277/home/7709593,TheMLS,19-510808,N,Y,33.811556,-118.3840179
PAST SALE,September-20-2019,Single Family Residential,407 Paseo Miramar,Redondo Beach,CA,90277,2550000,4,4.0,128 - Hollywood Riviera,3133,6000,1997,139,814,320,Sold,,,http://www.redfin.com/CA/Redondo-Beach/407-Pso-Miramar-90277/home/7708104,CRMLS,PW19150199,N,Y,33.8108967,-118.3887216
PAST SALE,November-15-2019,Single Family Residential,118 Via Pasqual,Redondo Beach,CA,90277,1900000,4,4.0,128 - Hollywood Riviera,2654,7763,1954,83,716,,Sold,,,http://www.redfin.com/CA/Redondo-Beach/118-Via-Pasqual-90277/home/7708015,CRMLS,SB19199630,N,Y,33.8069515,-118.3869621
PAST SALE,May-10-2018,Single Family Residential,162 Via Los Miradores,Redondo Beach,CA,90277,2164500,4,2.5,128 - Hollywood Riviera,2712,6888,1953,637,798,,Sold,,,http://www.redfin.com/CA/Redondo-Beach/162-Via-Los-Miradores-90277/home/7709330,CRMLS,SB18028252,N,Y,33.8118363,-118.3770615
PAST SALE,May-3-2019,Single Family Residential,149 Vista Del Parque,Redondo Beach,CA,90277,1375000,4,1.75,128 - Hollywood Riviera,1955,6481,1959,279,703,,Sold,,,http://www.redfin.com/CA/Redondo-Beach/149-Vista-Del-Parque-90277/home/7709169,CRMLS,PV19039225,N,Y,33.814503,-118.379202
PAST SALE,August-31-2018,Single Family Residential,411 Via Linda Vis,Redondo Beach,CA,90277,1780000,4,5.0,128 - Hollywood Riviera,3228,6894,1949,524,551,,Sold,,,http://www.redfin.com/CA/Redondo-Beach/411-Via-Linda-Vis-90277/home/7709341,CRMLS,PV18040562,N,Y,33.811933,-118.3775696
PAST SALE,January-3-2020,Single Family Residential,232 Vista Del Parque,Redondo Beach,CA,90277,1590000,4,2.25,128 - Hollywood Riviera,3237,7615,1954,34,491,,Sold,,,http://www.redfin.com/CA/Redondo-Beach/232-Vista-Del-Parque-90277/home/7709090,CRMLS,SB19219492,N,Y,33.814576,-118.3767027
PAST SALE,December-3-2019,Single Family Residential,111 Via Monte Doro,Redondo Beach,CA,90277,1707000,4,2.75,128 - Hollywood Riviera,2216,7102,1953,65,770,,Sold,,,http://www.redfin.com/CA/Redondo-Beach/111-Via-Monte-Doro-90277/home/7709653,CRMLS,PV19247602,N,Y,33.8139795,-118.3847482
PAST SALE,May-18-2018,Single Family Residential,432 Camino De Encanto,Redondo Beach,CA,90277,1635000,4,1.75,128 - Hollywood Riviera,1428,7710,1955,629,1145,,Sold,,,http://www.redfin.com/CA/Redondo-Beach/432-Camino-de-Encanto-90277/home/7707646,CRMLS,PV18084897,N,Y,33.8097073,-118.3878045
PAST SALE,August-30-2018,Single Family Residential,1027 Avenue A,Redondo Beach,CA,90277,2367750,4,5.5,156 - S Redondo Bch S of Torrance Bl,4359,6569,2017,525,543,,Sold,,,http://www.redfin.com/CA/Redondo-Beach/1027-Avenue-A-90277/home/7706328,CRMLS,PV18176001,N,Y,33.8271123,-118.3750251
PAST SALE,June-28-2019,Single Family Residential,1065 Avenue B,Redondo Beach,CA,90277,2100000,4,4.25,156 - S Redondo Bch S of Torrance Bl,3223,6361,2014,223,652,,Sold,,,http://www.redfin.com/CA/Redondo-Beach/1065-Avenue-B-90277/home/79041566,CRMLS,SB19049792,N,Y,33.8261153,-118.374523
PAST SALE,June-14-2018,Single Family Residential,517 Via La Selva,Redondo Beach,CA,90277,2025000,4,2.5,128 - Hollywood Riviera,3124,6601,1953,602,648,,Sold,,,http://www.redfin.com/CA/Redondo-Beach/517-Via-La-Selva-90277/home/7708255,CRMLS,PV18079991,N,Y,33.8103591,-118.381667
PAST SALE,July-19-2019,Single Family Residential,3310 Torrance Blvd,Torrance,CA,90503,967000,4,3.0,126 - Central Torrance,1894,7345,1951,202,511,,Sold,,,http://www.redfin.com/CA/Torrance/3310-Torrance-Blvd-90503/home/7655671,CRMLS,RS19132075,N,Y,33.8367276,-118.3436951
PAST SALE,November-26-2019,Single Family Residential,21622 Scannel Ave,Torrance,CA,90503,1170000,4,2.0,130 - Southwood,2026,6270,1955,72,577,,Sold,,,http://www.redfin.com/CA/Torrance/21622-Scannel-Ave-90503/home/7710518,CRMLS,SB19231960,N,Y,33.8324088,-118.3717155
PAST SALE,November-9-2018,Single Family Residential,5619 Konya Dr,Torrance,CA,90503,1545000,4,3.25,131 - West Torrance,2384,10481,1959,454,648,,Sold,,,http://www.redfin.com/CA/Torrance/5619-Konya-Dr-90503/home/7711835,CRMLS,SB18211489,N,Y,33.8480408,-118.3757087
PAST SALE,,Single Family Residential,5653 Alix Ct,Torrance,CA,90503,1435000,4,4.0,,2943,6981,2002,,488,,,,,http://www.redfin.com/CA/Torrance/5653-Alix-Ct-90503/home/8139683,,,N,Y,33.8483457,-118.3772151
PAST SALE,July-6-2018,Single Family Residential,5118 Cathann St,Torrance,CA,90503,1269000,4,2.75,130 - Southwood,1792,6891,1955,580,708,,Sold,,,http://www.redfin.com/CA/Torrance/5118-Cathann-St-90503/home/7711729,CRMLS,SB18128235,N,Y,33.8282208,-118.367858
PAST SALE,May-28-2019,Single Family Residential,1823 W 236th St,Torrance,CA,90501,1180000,4,4.0,135 - South East Torrance - East,3312,5942,2004,254,356,,Sold,,,http://www.redfin.com/CA/Torrance/1823-W-236th-St-90501/home/8119776,CRMLS,SB19067095,N,Y,33.8114903,-118.3115372
PAST SALE,May-23-2018,Single Family Residential,2951 Sonoma St,Torrance,CA,90503,960000,4,3.0,126 - Central Torrance,2309,7850,1974,624,416,,Sold,,,http://www.redfin.com/CA/Torrance/2951-Sonoma-St-90503/home/7656034,CRMLS,SB18080841,N,Y,33.8330116,-118.3397645
PAST SALE,December-10-2019,Single Family Residential,2528 Plaza Del Amo,Torrance,CA,90503,985000,4,2.5,126 - Central Torrance,2370,77071,1999,58,416,215,Sold,,,http://www.redfin.com/CA/Torrance/2528-Plaza-del-Amo-90503/home/8092485,CRMLS,SB19261344,N,Y,33.826711,-118.329359
PAST SALE,August-20-2018,Single Family Residential,4809 Spencer St,Torrance,CA,90503,1050000,4,1.75,West Torrance,1961,6056,1971,535,535,,Sold,,,http://www.redfin.com/CA/Torrance/4809-Spencer-St-90503/home/7712943,PFAR,818003415,N,Y,33.8452079,-118.3648357
PAST SALE,August-2-2019,Single Family Residential,1448 Engracia Ave,Torrance,CA,90501,950000,4,2.0,134 - Old Torrance,2276,7001,1930,188,417,,Sold,,,http://www.redfin.com/CA/Torrance/1448-Engracia-Ave-90501/home/7651479,CRMLS,SB19063943,N,Y,33.8332473,-118.3215151
PAST SALE,October-30-2019,Single Family Residential,2420 231st St,Torrance,CA,90501,950000,4,1.75,135 - South East Torrance - East,1891,5775,1973,99,502,,Sold,,,http://www.redfin.com/CA/Torrance/2420-231st-St-90501/home/7659752,CRMLS,SB19208761,N,Y,33.815447,-118.326144
PAST SALE,May-14-2019,Single Family Residential,2327 W 232nd St,Torrance,CA,90501,965000,4,3.0,135 - South East Torrance - East,2138,5776,1973,268,451,,Sold,,,http://www.redfin.com/CA/Torrance/2327-W-232nd-St-90501/home/7659794,CRMLS,OC19065241,N,Y,33.8151537,-118.3237983
PAST SALE,September-18-2018,Single Family Residential,2324 Santa Cruz Ct,Torrance,CA,90501,995000,4,3.0,134 - Old Torrance,2616,6000,1977,506,380,,Sold,,,http://www.redfin.com/CA/Torrance/2324-Santa-Cruz-Ct-90501/home/7652880,CRMLS,SB18121428,N,Y,33.8216635,-118.3247116
PAST SALE,September-21-2018,Single Family Residential,2706 W 225th St,Torrance,CA,90505,956000,4,2.0,127 - South East Torrance - West,1785,5998,1960,503,536,,Sold,,,http://www.redfin.com/CA/Torrance/2706-W-225th-St-90505/home/7664581,CRMLS,PV18197377,N,Y,33.8214614,-118.3323599
PAST SALE,May-26-2018,Single Family Residential,2364 W 229th Pl,Torrance,CA,90501,990000,4,3.0,135 - South East Torrance - East,2722,5600,1965,621,364,,Sold,,,http://www.redfin.com/CA/Torrance/2364-229th-Pl-90501/home/7659310,CRMLS,SB18087812,N,Y,33.8175987,-118.3246887
PAST SALE,August-5-2019,Single Family Residential,2265 W 230th Pl,Torrance,CA,90501,950000,4,2.5,135 - South East Torrance - East,2304,5802,1973,185,412,,Sold,,,http://www.redfin.com/CA/Torrance/2265-W-230th-Pl-90501/home/7659634,CRMLS,SB19133251,N,Y,33.8166,-118.322157
PAST SALE,December-20-2019,Single Family Residential,2536 W 227th St,Torrance,CA,90505,900000,4,2.0,127 - South East Torrance - West,1946,6001,1960,48,462,,Sold,,,http://www.redfin.com/CA/Torrance/2536-W-227th-St-90505/home/7664475,CRMLS,PV19188890,N,Y,33.8196702,-118.3295295
PAST SALE,January-29-2019,Single Family Residential,1610 Iris Ave,Torrance,CA,90503,1200000,4,3.0,126 - Central Torrance,3401,11251,1969,373,353,,Sold,,,http://www.redfin.com/CA/Torrance/1610-Iris-Ave-90503/home/7656303,CRMLS,PV18287921,N,Y,33.8323813,-118.3354421
PAST SALE,October-12-2018,Single Family Residential,2623 Bayport Dr,Torrance,CA,90503,940000,4,2.5,126 - Central Torrance,2534,202825,1987,482,371,300,Sold,,,http://www.redfin.com/CA/Torrance/2623-Bayport-Dr-90503/home/7653871,CRMLS,SB18212420,N,Y,33.826164,-118.332995
PAST SALE,July-31-2019,Single Family Residential,2659 Bayport Dr,Torrance,CA,90503,958000,4,2.5,126 - Central Torrance,2534,125888,1988,190,378,300,Sold,,,http://www.redfin.com/CA/Torrance/2659-Bayport-Dr-90503/home/7653880,CRMLS,SB19103957,N,Y,33.826113,-118.33394
PAST SALE,July-18-2018,Single Family Residential,4926 Sepulveda Blvd,Torrance,CA,90505,1085000,4,3.0,129 - South Torrance,2947,5973,1952,568,368,,Sold,,,http://www.redfin.com/CA/Torrance/4926-Sepulveda-Blvd-90505/home/7716944,CRMLS,SB18052965,N,Y,33.8264065,-118.366273
PAST SALE,September-19-2018,Single Family Residential,2536 El Dorado St,Torrance,CA,90503,1065000,4,2.5,126 - Central Torrance,2631,5472,1998,505,405,,Sold,,,http://www.redfin.com/CA/Torrance/2536-El-Dorado-St-90501/home/7656487,CRMLS,SB18177971,N,Y,33.8342052,-118.3299443
PAST SALE,April-19-2019,Single Family Residential,2102 W 166th St,Torrance,CA,90504,900000,4,1.75,133 - N Torrance - East,1890,6010,1965,293,476,,Sold,,,http://www.redfin.com/CA/Torrance/2102-166th-St-90504/home/6589919,CRMLS,OC19047414,N,Y,33.8798887,-118.3157385
PAST SALE,March-18-2019,Single Family Residential,2889 Plaza Del Amo #310,Torrance,CA,90503,993314,4,3.0,126 - Central Torrance,2807,2443,2002,325,354,175,Sold,,,http://www.redfin.com/CA/Torrance/2889-Plaza-del-Amo-90503/unit-310/home/8121875,CRMLS,SB18199491,N,Y,33.8284887,-118.3353738
PAST SALE,May-24-2019,Single Family Residential,21203 S Normandie Ave,Torrance,CA,90501,904990,4,3.0,122 - Harbor Gateway,2055,5796,2018,258,440,139,Sold,,,http://www.redfin.com/CA/Torrance/21203-Normandie-Ave-90501/home/110088504,CRMLS,SW18263515,N,Y,33.8363294,-118.2994022
PAST SALE,December-24-2019,Single Family Residential,2415 Santa Fe Ave,Torrance,CA,90501,950000,4,3.0,134 - Old Torrance,2616,6220,1977,44,363,,Sold,,,http://www.redfin.com/CA/Torrance/2415-Santa-Fe-Ave-90501/home/7653456,CRMLS,PW19216644,N,Y,33.8232302,-118.3263098
PAST SALE,January-2-2020,Single Family Residential,3637 Courtney Way,Torrance,CA,90505,1350000,4,3.0,125 - Walteria,2485,4852,1976,35,543,,Sold,,,http://www.redfin.com/CA/Torrance/3637-Courtney-Way-90505/home/7727745,CRMLS,PV19253589,N,Y,33.797106,-118.3490349
PAST SALE,April-19-2018,Single Family Residential,3904 Newton St,Torrance,CA,90505,979000,4,1.75,128 - Hollywood Riviera,1759,4956,1963,658,557,,Sold,,,http://www.redfin.com/CA/Torrance/3904-Newton-St-90505/home/7720703,CRMLS,SB18043542,N,Y,33.8019863,-118.3548924
PAST SALE,December-11-2018,Single Family Residential,153 Via Monte Doro,Redondo Beach,CA,90277,1535000,4,2.0,128 - Hollywood Riviera,2290,7200,1953,422,670,,Sold,,,http://www.redfin.com/CA/Redondo-Beach/153-Via-Monte-Doro-90277/home/7709664,CRMLS,SB18263726,N,Y,33.8121491,-118.3847584
PAST SALE,August-1-2019,Single Family Residential,127 Via Alameda,Redondo Beach,CA,90277,1400000,4,3.0,128 - Hollywood Riviera,2135,6842,1954,189,656,,Sold,,,http://www.redfin.com/CA/Redondo-Beach/127-Via-Alameda-90277/home/7708224,CRMLS,SB19127570,N,Y,33.8054683,-118.3833085
PAST SALE,December-3-2019,Single Family Residential,617 Paseo De Los Reyes,Redondo Beach,CA,90277,2320000,4,3.5,128 - Hollywood Riviera,2500,9400,1954,65,928,,Sold,,,http://www.redfin.com/CA/Redondo-Beach/617-Paseo-de-los-Reyes-90277/home/7707863,CRMLS,SB19221100,N,Y,33.8051124,-118.3895494
PAST SALE,April-24-2019,Single Family Residential,24731 Winlock Dr,Torrance,CA,90505,1545000,4,3.0,125 - Walteria,3258,8484,1990,288,474,,Sold,,,http://www.redfin.com/CA/Torrance/24731-Winlock-Dr-90505/home/7721087,CRMLS,SB19056594,N,Y,33.7977679,-118.3464003
PAST SALE,April-10-2018,Single Family Residential,4117 Via Solano,Palos Verdes Estates,CA,90274,2450000,4,4.0,164 - Valmonte,3062,7802,2006,667,800,,Sold,,,http://www.redfin.com/CA/Palos-Verdes-Estates/4117-Via-Solano-90274/home/7722366,CRMLS,SB18032814,N,Y,33.8017408,-118.3594122
PAST SALE,April-18-2018,Single Family Residential,2622 Dorset Dr,Torrance,CA,90503,984750,4,2.5,126 - Central Torrance,2534,202825,1987,659,389,300,Sold,,,http://www.redfin.com/CA/Torrance/2622-Dorset-Dr-90503/home/7653839,CRMLS,DW17280819,N,Y,33.826164,-118.332995
PAST SALE,October-25-2018,Single Family Residential,25932 Richville Dr,Torrance,CA,90505,1305000,4,2.5,125 - Walteria,2926,5251,1956,469,446,,Sold,,,http://www.redfin.com/CA/Torrance/25932-Richville-Dr-90505/home/7721933,CRMLS,PV18164833,N,Y,33.7861638,-118.3331532
PAST SALE,November-9-2018,Single Family Residential,25941 Richville Dr,Torrance,CA,90505,1055000,4,3.0,125 - Walteria,2800,6483,1956,454,377,,Sold,,,http://www.redfin.com/CA/Torrance/25941-Richville-Dr-90505/home/7721949,CRMLS,SB18173347,N,Y,33.7861195,-118.3339609
PAST SALE,February-28-2019,Single Family Residential,1 Bixby Ranch Road Rd,Rolling Hills Estates,CA,90274,4185335,4,4.5,165 - PV Dr North,4740,12174,2019,343,883,398,Sold,,,http://www.redfin.com/CA/ROLLING-HILLS-EST/Unknown-Unknown/home/160299661,CRMLS,PV19020985,N,Y,33.783293,-118.331308
PAST SALE,October-19-2018,Single Family Residential,22715 Eriel Ave,Torrance,CA,90505,952702,4,2.0,127 - South East Torrance - West,1919,6500,1960,475,496,,Sold,,,http://www.redfin.com/CA/Torrance/22715-Eriel-Ave-90505/home/7664506,CRMLS,SB18215339,N,Y,33.8196022,-118.3308379
PAST SALE,August-9-2018,Single Family Residential,438 N Prospect Ave,Redondo Beach,CA,90277,1059000,4,2.5,155 - S Redondo Bch N of Torrance Bl,1958,3325,1965,546,541,,Sold,,,http://www.redfin.com/CA/Redondo-Beach/438-N-Prospect-Ave-90277/home/7699922,CRMLS,SB18153937,N,Y,33.8508436,-118.3777477
PAST SALE,March-7-2018,Single Family Residential,4133 Mesa St,Torrance,CA,90505,1370000,4,2.5,128 - Hollywood Riviera,2574,7630,2007,701,532,,Sold,,,http://www.redfin.com/CA/Torrance/4133-Mesa-St-90505/home/12280382,CRMLS,SB18011427,N,Y,33.8029129,-118.3577686
PAST SALE,August-13-2018,Single Family Residential,4076 Bluff St,Torrance,CA,90505,1190000,4,2.0,128 - Hollywood Riviera,1604,6537,1956,542,742,,Sold,,,http://www.redfin.com/CA/Torrance/4076-Bluff-St-90505/home/7720817,CRMLS,SB18145764,N,Y,33.8036005,-118.3574397
PAST SALE,June-17-2019,Single Family Residential,3831 Bluff St,Torrance,CA,90505,1750000,4,2.75,128 - Hollywood Riviera,2573,5017,1963,234,680,,Sold,,,http://www.redfin.com/CA/Torrance/3831-Bluff-St-90505/home/7720723,CRMLS,SB19088978,N,Y,33.800501,-118.3539336
PAST SALE,March-20-2018,Single Family Residential,3425 La Selva Pl,Palos Verdes Estates,CA,90274,3225000,4,4.5,164 - Valmonte,3814,12817,2002,688,846,,Sold,,,http://www.redfin.com/CA/Palos-Verdes-Estates/3425-La-Selva-Pl-90274/home/7722841,CRMLS,PV18031774,N,Y,33.8038355,-118.3704601
PAST SALE,October-5-2018,Single Family Residential,20019 Mildred Ave,Torrance,CA,90503,1300000,4,2.25,131 - West Torrance,2197,5175,1970,489,592,,Sold,,,http://www.redfin.com/CA/Torrance/20019-Mildred-Ave-90503/home/7713718,CRMLS,SB18190597,N,Y,33.8497942,-118.3762641
PAST SALE,October-30-2019,Single Family Residential,24238 Neece Ave,Torrance,CA,90505,1200000,4,2.75,125 - Walteria,2830,9337,1972,99,424,,Sold,,,http://www.redfin.com/CA/Torrance/24238-Neece-Ave-90505/home/7720417,CRMLS,SB19214307,N,Y,33.8029039,-118.3520141
PAST SALE,February-28-2019,Single Family Residential,24457 Park St,Torrance,CA,90505,950000,4,3.25,125 - Walteria,2499,3301,1985,343,380,,Sold,,,http://www.redfin.com/CA/Torrance/24457-Park-St-90505/home/7720611,CRMLS,SB19026810,N,Y,33.8000325,-118.3502745
PAST SALE,October-23-2018,Single Family Residential,3200 Newton St,Torrance,CA,90505,1020000,4,2.5,125 - Walteria,2280,6747,1993,471,447,,Sold,,,http://www.redfin.com/CA/Torrance/3200-Newton-St-90505/home/7721285,CRMLS,SB18198556,N,Y,33.7969195,-118.3421433
PAST SALE,,Single Family Residential,3433 Via La Selva,Palos Verdes Estates,CA,90274,2625000,3,3.0,,2749,8792,1947,,955,,,,,http://www.redfin.com/CA/Palos-Verdes-Estates/3433-Via-La-Selva-90274/home/7722843,,,N,Y,33.803425,-118.370242
PAST SALE,May-31-2019,Single Family Residential,3006 Oakwood Ln,Torrance,CA,90505,1120000,4,3.0,Walteria,1996,7320,1976,251,561,,Sold,,,http://www.redfin.com/CA/Torrance/3006-Oakwood-Ln-90505/home/7728111,TheMLS,19-458148,N,Y,33.7907886,-118.342702
PAST SALE,December-6-2018,Single Family Residential,3930 Paseo De Las Tortugas,Torrance,CA,90505,1095000,4,2.5,128 - Hollywood Riviera,2259,6443,1967,427,485,,Sold,,,http://www.redfin.com/CA/Torrance/3930-Pso-De-Las-Tortugas-90505/home/7720823,CRMLS,SB18177596,N,Y,33.8005399,-118.3569925
PAST SALE,August-31-2018,Single Family Residential,1918 W 237th St,Torrance,CA,90501,900000,4,2.0,135 - South East Torrance - East,1962,5761,1968,524,459,,Sold,,,http://www.redfin.com/CA/Torrance/1918-W-237th-St-90501/home/7655422,CRMLS,PW18136569,N,Y,33.8096153,-118.312382
PAST SALE,June-21-2018,Single Family Residential,23809 Stanhurst Ave,Torrance,CA,90501,900000,4,2.0,135 - South East Torrance - East,1952,5782,1966,595,461,,Sold,,,http://www.redfin.com/CA/Torrance/23809-Stanhurst-Ave-90501/home/7660883,CRMLS,SB18106303,N,Y,33.8080594,-118.3137977
PAST SALE,,Single Family Residential,1947 237th Pl,Torrance,CA,90501,1020000,4,3.0,,3008,5776,2000,,339,,,,,http://www.redfin.com/CA/Torrance/1947-237th-Pl-90501/home/7655458,,,N,Y,33.8092933,-118.3132725
PAST SALE,December-11-2018,Single Family Residential,2351 W 227th St,Torrance,CA,90501,960000,4,2.5,South East Torrance - East,2278,6480,1972,422,421,,Sold,,,http://www.redfin.com/CA/Torrance/2351-W-227th-St-90501/home/7659100,TheMLS,18-396924,N,Y,33.8202193,-118.3243919
PAST SALE,March-5-2018,Single Family Residential,4617 Jacques St,Torrance,CA,90503,948888,4,2.75,130 - Southwood,1695,5721,1955,703,560,,Sold,,,http://www.redfin.com/CA/Torrance/4617-Jacques-St-90503/home/7711370,CRMLS,SB18030411,N,Y,33.8296347,-118.3625166
PAST SALE,June-5-2019,Single Family Residential,3702 Michelle Dr,Torrance,CA,90503,1100800,4,3.0,126 - Central Torrance,2393,6005,1969,246,460,,Sold,,,http://www.redfin.com/CA/Torrance/3702-Michelle-Dr-90503/home/7715542,CRMLS,SB19100834,N,Y,33.846907,-118.3514219
PAST SALE,July-6-2018,Single Family Residential,21426 Ladeene Ave,Torrance,CA,90503,970000,4,3.0,130 - Southwood,1775,5324,1956,580,546,,Sold,,,http://www.redfin.com/CA/Torrance/21426-Ladeene-Ave-90503/home/7716660,CRMLS,PV18117766,N,Y,33.8340756,-118.3598231
PAST SALE,February-21-2019,Single Family Residential,20317 Donora Ave,Torrance,CA,90503,1270000,4,3.25,131 - West Torrance,2256,6007,1960,350,563,,Sold,,,http://www.redfin.com/CA/Torrance/20317-Donora-Ave-90503/home/7712808,CRMLS,SB18281938,N,Y,33.8479459,-118.3654384
PAST SALE,May-31-2018,Single Family Residential,5206 Garnet St,Torrance,CA,90503,1150000,4,2.0,131 - West Torrance,1935,6017,1967,616,594,,Sold,,,http://www.redfin.com/CA/Torrance/5206-Garnet-St-90503/home/7712657,CRMLS,SB18090013,N,Y,33.8429795,-118.3689536
PAST SALE,June-28-2019,Single Family Residential,21914 Ladeene Ave,Torrance,CA,90503,1255000,4,3.0,130 - Southwood,2568,5707,1956,223,489,,Sold,,,http://www.redfin.com/CA/Torrance/21914-Ladeene-Ave-90503/home/7657451,CRMLS,SB19093666,N,Y,33.8292573,-118.3584078
PAST SALE,February-28-2018,Single Family Residential,2129 Johnson Ct,Torrance,CA,90504,926000,4,1.75,132 - N Torrance - West,1890,6001,1965,708,490,,Sold,,,http://www.redfin.com/CA/Torrance/2129-Johnson-Ct-90504/home/6589933,CRMLS,OC18020010,N,Y,33.8795807,-118.3166518
PAST SALE,June-13-2019,Single Family Residential,4273 W 190th St,Torrance,CA,90504,987000,4,3.5,132 - N Torrance - West,2580,131746,2004,238,383,175,Sold,,,http://www.redfin.com/CA/Torrance/4273-W-190th-St-90504/home/8144644,CRMLS,PW19111747,N,Y,33.858829,-118.348916
PAST SALE,July-8-2019,Single Family Residential,4263 W 190th St,Torrance,CA,90504,980000,4,3.5,132 - N Torrance - West,2580,131746,2004,213,380,175,Sold,,,http://www.redfin.com/CA/Torrance/4263-W-190th-St-90504/home/8144625,CRMLS,PW19085606,N,Y,33.858829,-118.348916
PAST SALE,December-6-2019,Single Family Residential,4297 W 190th St,Torrance,CA,90504,945000,4,3.5,132 - N Torrance - West,2580,131746,2004,62,366,175,Sold,,,http://www.redfin.com/CA/Torrance/4297-W-190th-St-90504/home/8144633,CRMLS,SB19239810,N,Y,33.858829,-118.348916
PAST SALE,June-7-2019,Single Family Residential,2511 Armour Ln,Redondo Beach,CA,90278,1110000,4,2.0,N. Redondo Beach/El Nido,1574,5279,1953,244,705,,Sold,,,http://www.redfin.com/CA/Redondo-Beach/2511-Armour-Ln-90278/home/6697004,TheMLS,19-458906,N,Y,33.8593011,-118.3638634
PAST SALE,October-19-2018,Single Family Residential,21502 Linda Dr,Torrance,CA,90503,1000000,4,2.5,130 - Southwood,1828,6062,1955,475,547,,Sold,,,http://www.redfin.com/CA/Torrance/21502-Linda-Dr-90503/home/7710581,CRMLS,SB18205435,N,Y,33.8336007,-118.3699123
PAST SALE,March-12-2018,Single Family Residential,4306 Carmen St,Torrance,CA,90503,1259000,4,3.25,130 - Southwood,2648,5600,1956,696,475,,Sold,,,http://www.redfin.com/CA/Torrance/4306-Carmen-St-90503/home/7716801,CRMLS,SB18028246,N,Y,33.8328666,-118.3593665
PAST SALE,July-22-2019,Single Family Residential,4619 Avenue C,Torrance,CA,90505,1150000,4,2.5,129 - South Torrance,1960,6159,1952,199,587,,Sold,,,http://www.redfin.com/CA/Torrance/4619-Avenue-C-90505/home/7717155,CRMLS,SB19088133,N,Y,33.825323,-118.3632471
PAST SALE,January-15-2019,Single Family Residential,21724 Reynolds Dr,Torrance,CA,90503,1320000,4,3.0,130 - Southwood,2123,6946,1955,387,622,,Sold,,,http://www.redfin.com/CA/Torrance/21724-Reynolds-Dr-90503/home/7711268,CRMLS,SB18274620,N,Y,33.8309298,-118.3631101
PAST SALE,July-10-2019,Single Family Residential,22010 Reynolds Dr,Torrance,CA,90503,1051000,4,2.0,130 - Southwood,1746,5804,1955,211,602,,Sold,,,http://www.redfin.com/CA/Torrance/22010-Reynolds-Dr-90503/home/7711497,CRMLS,SB19114900,N,Y,33.8283813,-118.3632014
PAST SALE,April-16-2019,Single Family Residential,2891 Maricopa St,Torrance,CA,90503,1085000,4,3.75,126 - Central Torrance,3102,166497,2007,296,350,169,Sold,,,http://www.redfin.com/CA/Torrance/2891-Maricopa-St-90503/home/12290450,CRMLS,SB19062022,N,Y,33.840266,-118.336607
PAST SALE,June-28-2018,Single Family Residential,826 Felbar Ave,Torrance,CA,90503,931000,4,2.0,126 - Central Torrance,2103,5001,1951,588,443,,Sold,,,http://www.redfin.com/CA/Torrance/826-Felbar-Ave-90503/home/7650092,CRMLS,PV18112567,N,Y,33.8385293,-118.3388438
PAST SALE,July-3-2018,Single Family Residential,815 Teri Ave,Torrance,CA,90503,1075000,4,2.75,126 - Central Torrance,2844,5885,1951,583,378,,Sold,,,http://www.redfin.com/CA/Torrance/815-Teri-Ave-90503/home/7650196,CRMLS,SB18121559,N,Y,33.8388156,-118.3368119
PAST SALE,August-30-2019,Single Family Residential,5109 Beran St,Torrance,CA,90503,1155000,4,3.75,130 - Southwood,2191,239623560,1955,160,527,,Sold,,,http://www.redfin.com/CA/Torrance/5109-Beran-St-90503/home/7711710,CRMLS,SB19134282,N,Y,33.827774,-118.367721
PAST SALE,June-4-2018,Single Family Residential,23208 Ocean Ave,Torrance,CA,90505,1055000,4,3.0,129 - South Torrance,2415,6000,1965,612,437,,Sold,,,http://www.redfin.com/CA/Torrance/23208-Ocean-Ave-90505/home/7664175,CRMLS,SW18085475,N,Y,33.815815,-118.3541096
PAST SALE,February-8-2019,Single Family Residential,23236 Grant Ave,Torrance,CA,90505,1185000,4,3.0,129 - South Torrance,2415,7852,1961,363,491,,Sold,,,http://www.redfin.com/CA/Torrance/23236-Grant-Ave-90505/home/7717954,CRMLS,SB18280018,N,Y,33.8155188,-118.3559424
PAST SALE,June-27-2019,Single Family Residential,22831 Elm Ave,Torrance,CA,90505,1430000,4,5.0,South East Torrance - West,4311,8078,1997,224,332,,Sold,,,http://www.redfin.com/CA/Torrance/22831-Elm-Ave-90505/home/7664532,TheMLS,19-456198,N,Y,33.8185318,-118.3308796
PAST SALE,May-16-2019,Single Family Residential,2633 W 230th,Torrance,CA,90505,953000,4,1.75,127 - South East Torrance - West,1499,6301,1960,266,636,,Sold,,,http://www.redfin.com/CA/Torrance/2633-W-230th-St-90505/home/7664526,CRMLS,SB19061663,N,Y,33.8184615,-118.3319262
PAST SALE,June-28-2019,Single Family Residential,22723 Eriel Ave,Torrance,CA,90505,1053000,4,2.0,127 - South East Torrance - West,2216,6504,1960,223,475,,Sold,,,http://www.redfin.com/CA/Torrance/22723-Eriel-Ave-90505/home/7664505,CRMLS,PV19113992,N,Y,33.8194747,-118.330921
PAST SALE,June-28-2019,Single Family Residential,22815 Fern Ave,Torrance,CA,90505,905000,4,1.75,127 - South East Torrance - West,2002,5999,1960,223,452,,Sold,,,http://www.redfin.com/CA/Torrance/22815-Fern-Ave-90505/home/7664567,CRMLS,PV19093959,N,Y,33.819024,-118.3325655
PAST SALE,March-22-2019,Single Family Residential,22630 Draille Dr,Torrance,CA,90505,1530000,4,3.0,129 - South Torrance,2664,6027,1954,321,574,,Sold,,,http://www.redfin.com/CA/Torrance/22630-Draille-Dr-90505/home/7717404,CRMLS,SB19028673,N,Y,33.8227251,-118.3678614
PAST SALE,January-31-2019,Single Family Residential,22650 Gaycrest Ave,Torrance,CA,90505,1400000,4,3.5,129 - South Torrance,1979,5909,1952,371,707,,Sold,,,http://www.redfin.com/CA/Torrance/22650-Gaycrest-Ave-90505/home/7717444,CRMLS,SB18258387,N,Y,33.8218016,-118.3686797
PAST SALE,August-22-2019,Single Family Residential,5123 Macafee Rd,Torrance,CA,90505,1605000,4,3.0,129 - South Torrance,3202,6146,2002,168,501,,Sold,,,http://www.redfin.com/CA/Torrance/5123-MacAfee-Rd-90505/home/7718989,CRMLS,SB19148714,N,Y,33.8148658,-118.3685063
PAST SALE,October-18-2019,Single Family Residential,123 Via Anita,Redondo Beach,CA,90277,1350000,4,2.5,128 - Hollywood Riviera,2390,6534,1954,111,565,,Sold,,,http://www.redfin.com/CA/Redondo-Beach/123-Via-Anita-90277/home/7708028,CRMLS,SB19185312,N,Y,33.8071556,-118.3876696
PAST SALE,,Single Family Residential,215 Via La Soledad,Redondo Beach,CA,90277,1775000,4,4.0,,2975,9955,1954,,597,,,,,http://www.redfin.com/CA/Redondo-Beach/215-Via-La-Soledad-90277/home/7708147,,,N,Y,33.8074896,-118.3835619
PAST SALE,June-13-2019,Single Family Residential,2884 W 230th St,Torrance,CA,90505,1229000,4,2.5,127 - South East Torrance - West,2337,7898,1963,238,526,,Sold,,,http://www.redfin.com/CA/Torrance/2884-W-230th-St-90505/home/7658919,CRMLS,SB19055614,N,Y,33.8183597,-118.3379616
PAST SALE,November-13-2019,Single Family Residential,308 Via Colusa,Redondo Beach,CA,90277,1360000,4,1.75,128 - Hollywood Riviera,1945,7201,1948,85,699,,Sold,,,http://www.redfin.com/CA/Redondo-Beach/308-Via-Colusa-90277/home/7708630,CRMLS,PV19230575,N,Y,33.8074067,-118.3770337
PAST SALE,January-31-2020,Single Family Residential,989 Calle Miramar,Redondo Beach,CA,90277,1200000,4,3.5,128 - Hollywood Riviera,2704,5529,1968,6,444,,Sold,,,http://www.redfin.com/CA/Redondo-Beach/989-Calle-Miramar-90277/home/7708386,CRMLS,PV19222156,N,Y,33.8070617,-118.3745448
PAST SALE,December-24-2019,Single Family Residential,18233 Illinois Ct,Torrance,CA,90504,943500,4,2.25,133 - N Torrance - East,2405,7056,1966,44,392,,Sold,,,http://www.redfin.com/CA/Torrance/18233-Illinois-Ct-90504/home/6595002,CRMLS,PV19256245,N,Y,33.8646632,-118.3143457
PAST SALE,July-2-2019,Single Family Residential,420 Camino De Encanto,Redondo Beach,CA,90277,1500000,4,3.0,128 - Hollywood Riviera,2147,7708,1955,219,699,,Sold,,,http://www.redfin.com/CA/Redondo-Beach/420-Camino-de-Encanto-90277/home/7707643,CRMLS,SB18291954,N,Y,33.8101483,-118.3874923
PAST SALE,November-8-2019,Single Family Residential,4204 Newton St,Torrance,CA,90505,1122300,4,2.25,128 - Hollywood Riviera,2065,6355,1972,90,543,,Sold,,,http://www.redfin.com/CA/Torrance/4204-Newton-St-90505/home/7720225,CRMLS,SB19210211,N,Y,33.8056644,-118.3589556
PAST SALE,December-5-2019,Single Family Residential,4405 Paseo De Las Tortugas,Torrance,CA,90505,1670000,4,3.0,128 - Hollywood Riviera,2627,19513,1956,63,636,,Sold,,,http://www.redfin.com/CA/Torrance/4405-Pso-De-Las-Tortugas-90505/home/7720123,CRMLS,SB19203338,N,Y,33.8046542,-118.3619245
PAST SALE,May-31-2019,Single Family Residential,416 Via El Chico,Redondo Beach,CA,90277,1650000,4,3.0,128 - Hollywood Riviera,2866,6650,1973,251,576,,Sold,,,http://www.redfin.com/CA/Redondo-Beach/416-Via-El-Chico-90277/home/7719513,CRMLS,SB19091724,N,Y,33.8097566,-118.3735643
PAST SALE,August-28-2018,Single Family Residential,3855 Merit Pl,Torrance,CA,90505,1050000,4,2.5,129 - South Torrance,2434,5997,1976,527,431,,Sold,,,http://www.redfin.com/CA/Torrance/3855-Merit-Pl-90505/home/7657560,CRMLS,SB18166554,N,Y,33.8220633,-118.3539793
PAST SALE,May-8-2019,Single Family Residential,4733 Greenmeadows Ave,Torrance,CA,90505,1275000,4,2.25,128 - Hollywood Riviera,2053,5804,1953,274,621,,Sold,,,http://www.redfin.com/CA/Torrance/4733-Greenmeadows-Ave-90505/home/7719569,CRMLS,SB19055749,N,Y,33.8101132,-118.3657123
PAST SALE,September-27-2019,Single Family Residential,4823 Highgrove Ave,Torrance,CA,90505,920000,4,2.0,128 - Hollywood Riviera,1632,5744,1953,132,564,,Sold,,,http://www.redfin.com/CA/Torrance/4823-Highgrove-Ave-90505/home/7719664,CRMLS,PV19230450,N,Y,33.8097823,-118.3667167
PAST SALE,November-15-2019,Single Family Residential,4922 Paseo Del Pavon,Torrance,CA,90505,1210000,4,2.0,128 - Hollywood Riviera,1616,11335,1956,83,749,,Sold,,,http://www.redfin.com/CA/Torrance/4922-Pso-Del-Pavon-90505/home/7719871,CRMLS,PV19213335,N,Y,33.8065943,-118.3687253
PAST SALE,March-4-2019,Single Family Residential,5502 Sunnyview St,Torrance,CA,90505,1129000,4,2.0,129 - South Torrance,1236,6876,1952,339,913,,Sold,,,http://www.redfin.com/CA/Torrance/5502-Sunnyview-St-90505/home/7710036,CRMLS,SB19021521,N,Y,33.8223086,-118.3711449
PAST SALE,February-12-2019,Single Family Residential,5441 Sharynne Ln,Torrance,CA,90505,1900888,4,3.0,129 - South Torrance,2219,10980,2018,359,857,,Sold,,,http://www.redfin.com/CA/Torrance/5441-Sharynne-Ln-90505/home/7710098,CRMLS,SB18293541,N,Y,33.8202687,-118.3728789
PAST SALE,August-29-2019,Single Family Residential,5508 Clearsite St,Torrance,CA,90505,1512000,4,2.75,129 - South Torrance,2184,5150,1952,161,692,,Sold,,,http://www.redfin.com/CA/Torrance/5508-Clearsite-St-90505/home/7710120,CRMLS,SB19146882,N,Y,33.8206825,-118.3715557
PAST SALE,June-7-2019,Single Family Residential,2525 Date Cir,Torrance,CA,90505,999800,4,2.5,127 - South East Torrance - West,2052,7384,1964,244,487,,Sold,,,http://www.redfin.com/CA/Torrance/2525-Date-Cir-90505/home/7664753,CRMLS,PV19048911,N,Y,33.8159406,-118.3283646
PAST SALE,August-28-2019,Single Family Residential,2350 W 231st St,Torrance,CA,90501,1005000,4,3.0,135 - South East Torrance - East,2138,5775,1973,162,470,,Sold,,,http://www.redfin.com/CA/Torrance/2350-231st-St-90501/home/7659791,CRMLS,DW19143626,N,Y,33.8154523,-118.3242093
PAST SALE,April-23-2019,Single Family Residential,5307 Bindewald Rd,Torrance,CA,90505,1520000,4,3.0,129 - South Torrance,2980,5855,1993,289,510,,Sold,,,http://www.redfin.com/CA/Torrance/5307-Bindewald-Rd-90505/home/7718807,CRMLS,SB19050419,N,Y,33.8166993,-118.3696922
PAST SALE,April-1-2019,Single Family Residential,2826 Knode St,Torrance,CA,90501,900000,4,3.25,134 - Old Torrance,2707,6391,1950,311,332,,Sold,,,http://www.redfin.com/CA/Torrance/2826-Knode-St-90501/home/7652499,CRMLS,PV19014404,N,Y,33.8181442,-118.3108293
PAST SALE,,Single Family Residential,413 Via Malaga,Redondo Beach,CA,90277,2615000,4,3.0,,2813,7679,1957,,930,,,,,http://www.redfin.com/CA/Redondo-Beach/413-Via-Malaga-90277/home/7707931,,,N,Y,33.805564,-118.388263
PAST SALE,November-1-2018,Single Family Residential,22712 Kathryn Ave,Torrance,CA,90505,1040000,4,2.0,129 - South Torrance,1920,5179,1953,462,542,,Sold,,,http://www.redfin.com/CA/Torrance/22712-Kathryn-Ave-90505/home/7717320,CRMLS,SB18245260,N,Y,33.8216721,-118.3613296
PAST SALE,October-1-2019,Single Family Residential,2255 W 230th St,Torrance,CA,90501,1200000,4,4.0,135 - South East Torrance - East,4182,6826,1988,128,287,,Sold,,,http://www.redfin.com/CA/Torrance/2255-230th-St-90501/home/7659374,CRMLS,SB19154461,N,Y,33.8173071,-118.3216749
PAST SALE,August-8-2018,Single Family Residential,5331 Linda Dr,Torrance,CA,90505,1850000,4,3.0,129 - South Torrance,3207,10657,1948,547,577,,Sold,,,http://www.redfin.com/CA/Torrance/5331-Linda-Dr-90505/home/7710210,CRMLS,PV18074790,N,Y,33.8173482,-118.3707796
PAST SALE,September-10-2019,Single Family Residential,1939 W 237th Pl,Torrance,CA,90501,1110000,4,3.0,135 - South East Torrance - East,3008,5776,2000,149,369,,Sold,,,http://www.redfin.com/CA/Torrance/1939-237th-Pl-90501/home/7655457,CRMLS,PV19189992,N,Y,33.8092729,-118.3131127
PAST SALE,May-22-2018,Single Family Residential,4115 W 229th St,Torrance,CA,90505,995000,4,2.5,129 - South Torrance,2135,5983,1963,625,466,,Sold,,,http://www.redfin.com/CA/Torrance/4115-W-229th-St-90505/home/7717830,CRMLS,PV18071260,N,Y,33.8202283,-118.3566729
PAST SALE,August-12-2019,Single Family Residential,4010 W 228th Pl,Torrance,CA,90505,1092000,4,3.0,129 - South Torrance,2352,6165,1963,178,464,,Sold,,,http://www.redfin.com/CA/Torrance/4010-W-228th-Pl-90505/home/7717837,CRMLS,SB19141359,N,Y,33.8205819,-118.3555772
PAST SALE,November-19-2018,Single Family Residential,235 Via La Circula,Redondo Beach,CA,90277,2300000,4,4.0,128 - Hollywood Riviera,3748,7172,2013,444,614,,Sold,,,http://www.redfin.com/CA/Redondo-Beach/235-Via-La-Circula-90277/home/7709391,CRMLS,SB18244777,N,Y,33.8124373,-118.3784032
PAST SALE,June-28-2019,Single Family Residential,172 Via Los Miradores,Redondo Beach,CA,90277,2210000,4,4.0,128 - Hollywood Riviera,3007,7154,1954,223,735,,Sold,,,http://www.redfin.com/CA/Redondo-Beach/172-Via-Los-Miradores-90277/home/7709333,CRMLS,PV19092827,N,Y,33.8114866,-118.3774329
PAST SALE,August-21-2019,Single Family Residential,1917 W 233rd St,Torrance,CA,90501,905000,4,1.75,135 - South East Torrance - East,1905,5776,1973,169,475,,Sold,,,http://www.redfin.com/CA/Torrance/1917-W-233rd-St-90501/home/7655269,CRMLS,SB19137747,N,Y,33.8144141,-118.3123592
PAST SALE,November-6-2019,Single Family Residential,23311 Henry Ct,Torrance,CA,90505,990000,4,1.75,127 - South East Torrance - West,1811,9272,1964,92,547,,Sold,,,http://www.redfin.com/CA/Torrance/23311-Henry-Ct-90505/home/7664830,CRMLS,IN19226858,N,Y,33.8142724,-118.3311956
PAST SALE,July-21-2019,Single Family Residential,5206 Calle De Ricardo,Torrance,CA,90505,1345000,4,3.0,128 - Hollywood Riviera,2523,7734,1956,200,533,,Sold,,,http://www.redfin.com/CA/Torrance/5206-Cll-De-Ricardo-90505/home/7719858,CRMLS,SB19103075,N,Y,33.8073374,-118.3705337
PAST SALE,February-26-2019,Single Family Residential,22736 Juniper Ave,Torrance,CA,90505,965000,4,3.0,127 - South East Torrance - West,2458,6135,1963,345,393,,Sold,,,http://www.redfin.com/CA/Torrance/22736-Juniper-Ave-90505/home/7658859,CRMLS,DW18225713,N,Y,33.8197077,-118.336349
PAST SALE,August-23-2019,Single Family Residential,23502 Ladeene Ave,Torrance,CA,90505,1000000,4,2.0,129 - South Torrance,2378,6264,1962,167,421,,Sold,,,http://www.redfin.com/CA/Torrance/23502-Ladeene-Ave-90505/home/7718572,CRMLS,OC19125891,N,Y,33.812644,-118.356536
PAST SALE,May-11-2018,Single Family Residential,23039 Adolph Ave,Torrance,CA,90505,995000,4,3.0,129 - South Torrance,2184,6325,1964,636,456,,Sold,,,http://www.redfin.com/CA/Torrance/23039-Adolph-Ave-90505/home/7718051,CRMLS,SB18075827,N,Y,33.8175471,-118.3558523
PAST SALE,December-31-2018,Single Family Residential,23036 Adolph Ave,Torrance,CA,90505,1100000,4,3.0,South Torrance,2382,6300,1964,402,462,,Sold,,,http://www.redfin.com/CA/Torrance/23036-Adolph-Ave-90505/home/7717902,TheMLS,18-367988,N,Y,33.817711,-118.3554709
PAST SALE,October-31-2019,Single Family Residential,2707 W 232nd St,Torrance,CA,90505,1020000,4,3.0,127 - South East Torrance - West,2404,6016,1965,98,424,,Sold,,,http://www.redfin.com/CA/Torrance/2707-W-232nd-St-90505/home/7665038,CRMLS,SB19185069,N,Y,33.8165506,-118.3334787
PAST SALE,December-13-2019,Single Family Residential,2644 W 231st St,Torrance,CA,90505,1050000,4,3.0,,2556,5985,1965,55,411,,Sold,,,http://www.redfin.com/CA/Torrance/2644-W-231st-St-90505/home/7665020,SDMLS,190059843,N,Y,33.8163707,-118.3321089
PAST SALE,June-7-2019,Single Family Residential,4535 Halison St,Torrance,CA,90503,1000000,4,3.0,West Torrance,1911,5152,1955,244,523,,Sold,,,http://www.redfin.com/CA/Torrance/4535-Halison-St-90503/home/7715132,TheMLS,19-449656,N,Y,33.8516899,-118.3555385
PAST SALE,June-29-2018,Single Family Residential,1020 Fonthill Ave,Torrance,CA,90503,1140000,4,3.0,126 - Central Torrance,2100,5000,2018,587,543,,Sold,,,http://www.redfin.com/CA/Torrance/1020-Fonthill-Ave-90503/home/7650137,CRMLS,IN18110398,N,Y,33.8374543,-118.3380904
PAST SALE,September-5-2019,Single Family Residential,21213 S Normandie Ave,Torrance,CA,90501,931990,4,4.0,122 - Harbor Gateway,2698,4543,2018,154,345,139,Sold,,,http://www.redfin.com/CA/Torrance/21213-Normandie-Ave-90501/home/110088523,CRMLS,SW18209942,N,Y,33.8360321,-118.2994019
PAST SALE,December-14-2018,Single Family Residential,5102 Scott St,Torrance,CA,90503,1045000,4,2.5,130 - Southwood,2019,5400,1955,419,518,,Sold,,,http://www.redfin.com/CA/Torrance/5102-Scott-St-90503/home/7710876,CRMLS,SB18153899,N,Y,33.8365065,-118.3669449
PAST SALE,March-29-2019,Single Family Residential,20537 Wayne Ave,Torrance,CA,90503,1060000,4,2.0,131 - West Torrance,1499,7560,1959,314,707,,Sold,,,http://www.redfin.com/CA/Torrance/20537-Wayne-Ave-90503/home/7712215,CRMLS,SB19037990,N,Y,33.8443153,-118.3732054
PAST SALE,September-21-2018,Single Family Residential,20533 Wayne Ave,Torrance,CA,90503,1140000,4,2.0,131 - West Torrance,1882,7560,1959,503,606,,Sold,,,http://www.redfin.com/CA/Torrance/20533-Wayne-Ave-90503/home/7712216,CRMLS,SB18199126,N,Y,33.8444632,-118.3731169
PAST SALE,September-11-2018,Single Family Residential,923 Cranbrook Ave,Torrance,CA,90503,1195000,4,2.75,126 - Central Torrance,3130,5200,1951,513,382,,Sold,,,http://www.redfin.com/CA/Torrance/923-Cranbrook-Ave-90503/home/7650227,CRMLS,SB18126927,N,Y,33.8379094,-118.3359444
PAST SALE,July-9-2019,Single Family Residential,1003 Beech Ave,Torrance,CA,90501,949000,4,2.75,134 - Old Torrance,1911,5541,1929,212,497,,Sold,,,http://www.redfin.com/CA/Torrance/1003-Beech-Ave-90501/home/7650861,CRMLS,SB19042363,N,Y,33.8377711,-118.3278166
PAST SALE,,Single Family Residential,4218 Konya Dr,Torrance,CA,90503,900000,4,3.0,,2434,6010,1979,,370,,,,,http://www.redfin.com/CA/Torrance/4218-Konya-Dr-90503/home/7716432,,,N,Y,33.8478595,-118.3589286
PAST SALE,September-10-2019,Single Family Residential,1633 Iris Ave,Torrance,CA,90503,1315000,4,4.0,126 - Central Torrance,3457,7579,1999,149,380,,Sold,,,http://www.redfin.com/CA/Torrance/1633-Iris-Ave-90503/home/7655979,CRMLS,SB19173741,N,Y,33.8318403,-118.3360186
PAST SALE,March-15-2019,Single Family Residential,1324 Elm Ave,Torrance,CA,90503,1119500,4,3.0,126 - Central Torrance,2329,7502,1941,328,481,,Sold,,,http://www.redfin.com/CA/Torrance/1324-Elm-Ave-90503/home/7656427,CRMLS,SB19029101,N,Y,33.8346941,-118.3308103
PAST SALE,October-8-2019,Single Family Residential,5532 Lorna St,Torrance,CA,90503,1250000,4,3.0,131 - West Torrance,2679,3676,1993,121,467,384,Sold,,,http://www.redfin.com/CA/Torrance/5532-Lorna-St-90503/home/7712411,CRMLS,SB19151794,N,Y,33.839594,-118.3734187
PAST SALE,October-24-2019,Single Family Residential,21018 Wendy,Torrance,CA,90503,1425000,4,3.5,131 - West Torrance,3396,5523,1996,105,420,384,Sold,,,http://www.redfin.com/CA/Torrance/21018-Wendy-Dr-90503/home/7712445,CRMLS,PV19108430,N,Y,33.8404481,-118.3728767
PAST SALE,September-25-2019,Single Family Residential,5264 Zakon Rd,Torrance,CA,90505,1650000,4,3.75,129 - South Torrance,3127,7110,2014,134,528,,Sold,,,http://www.redfin.com/CA/Torrance/5264-Zakon-Rd-90505/home/7718845,CRMLS,SB19182958,N,Y,33.8155774,-118.3706364
PAST SALE,October-19-2018,Single Family Residential,5515 Arvada St,Torrance,CA,90503,1360000,4,4.0,131 - West Torrance,2798,6599,1956,475,486,,Sold,,,http://www.redfin.com/CA/Torrance/5515-Arvada-St-90503/home/7713184,CRMLS,SB18141252,N,Y,33.8565139,-118.3729792
PAST SALE,,Single Family Residential,5401 Arvada St,Torrance,CA,90503,1250000,4,3.0,,1616,11719,1956,,774,,,,,http://www.redfin.com/CA/Torrance/5401-Arvada-St-90503/home/7713204,,,N,Y,33.8565244,-118.3705777
PAST SALE,March-27-2019,Single Family Residential,21086 Colony Ct,Torrance,CA,90503,1275000,4,3.0,131 - West Torrance,2679,4200,1991,316,476,384,Sold,,,http://www.redfin.com/CA/Torrance/21086-Colony-Ct-90503/home/7712371,CRMLS,SB19044723,N,Y,33.8385923,-118.3732267
PAST SALE,September-9-2019,Single Family Residential,1226 Cranbrook Ave,Torrance,CA,90503,900000,4,2.0,126 - Central Torrance,1812,5991,1951,150,497,,Sold,,,http://www.redfin.com/CA/Torrance/1226-Cranbrook-Ave-90503/home/7656229,CRMLS,SB19169178,N,Y,33.8352927,-118.3352539
PAST SALE,October-16-2018,Single Family Residential,3708 Michelle Dr,Torrance,CA,90503,950000,4,3.0,126 - Central Torrance,2174,5963,1969,478,437,,Sold,,,http://www.redfin.com/CA/Torrance/3708-Michelle-Dr-90503/home/7715543,CRMLS,SB18211210,N,Y,33.846904,-118.3515897
PAST SALE,January-2-2019,Single Family Residential,20345 Roslin Ave,Torrance,CA,90503,1041000,4,3.0,126 - Central Torrance,2265,6533,1969,400,460,,Sold,,,http://www.redfin.com/CA/Torrance/20345-Roslin-Ave-90503/home/7716418,CRMLS,SB18266544,N,Y,33.847288,-118.3515019
PAST SALE,April-3-2018,Single Family Residential,20021 Pruitt Dr,Torrance,CA,90503,1075000,4,3.0,131 - West Torrance,1981,5762,1956,674,543,,Sold,,,http://www.redfin.com/CA/Torrance/20021-Pruitt-Dr-90503/home/7715423,CRISNet,SR18037840,N,Y,33.8500028,-118.3613753
PAST SALE,July-26-2019,Single Family Residential,4709 Deelane St,Torrance,CA,90503,1210000,4,2.75,131 - West Torrance,2830,5201,1954,195,428,,Sold,,,http://www.redfin.com/CA/Torrance/4709-Deelane-St-90503/home/7714974,CRMLS,SB19105577,N,Y,33.8524041,-118.3581795
PAST SALE,August-22-2019,Single Family Residential,150 Via Monte Doro,Redondo Beach,CA,90277,1730000,4,3.0,128 - Hollywood Riviera,2461,7496,1954,168,703,,Sold,,,http://www.redfin.com/CA/Redondo-Beach/150-Via-Monte-Doro-90277/home/7709641,CRMLS,OC19169208,N,Y,33.8124038,-118.3841548
PAST SALE,May-15-2018,Single Family Residential,3521 Spencer St,Torrance,CA,90503,965000,4,1.75,126 - Central Torrance,2108,6144,1964,632,458,,Sold,,,http://www.redfin.com/CA/Torrance/3521-Spencer-St-90503/home/7715464,CRMLS,SB18077225,N,Y,33.8452214,-118.3477608
PAST SALE,December-20-2018,Single Family Residential,17025 Atkinson Ave,Torrance,CA,90504,995000,4,2.75,133 - N Torrance - East,2146,6248,2018,413,464,,Sold,,,http://www.redfin.com/CA/Torrance/17025-Atkinson-Ave-90504/home/6588833,CRMLS,PV18255403,N,Y,33.875771,-118.3255792
PAST SALE,October-9-2019,Single Family Residential,1445 S Irena Ave,Redondo Beach,CA,90277,2395000,4,5.0,156 - S Redondo Bch S of Torrance Bl,3770,6270,2016,120,635,,Sold,,,http://www.redfin.com/CA/Redondo-Beach/1445-S-Irena-Ave-90277/home/7706590,CRMLS,SB19192173,N,Y,33.8215517,-118.375299
PAST SALE,February-7-2019,Single Family Residential,4916 Onyx St,Torrance,CA,90503,958880,4,3.0,131 - West Torrance,2080,6023,1965,364,461,,Sold,,,http://www.redfin.com/CA/Torrance/4916-Onyx-St-90503/home/7713066,CRMLS,SB19007540,N,Y,33.8422034,-118.3661232
PAST SALE,May-24-2019,Single Family Residential,5122 Onyx St,Torrance,CA,90503,1060000,4,2.0,West Torrance,1610,6732,1961,258,658,,Sold,,,http://www.redfin.com/CA/Torrance/5122-Onyx-St-90503/home/7712615,TheMLS,19-425384,N,Y,33.8418396,-118.3685427
PAST SALE,September-18-2018,Single Family Residential,2885 Maricopa St,Torrance,CA,90503,1041000,4,4.0,126 - Central Torrance,3102,166497,2007,506,336,169,Sold,,,http://www.redfin.com/CA/Torrance/2885-Maricopa-St-90503/home/12287556,CRMLS,SB18088115,N,Y,33.840266,-118.336607
PAST SALE,March-12-2019,Single Family Residential,2881 Maricopa St,Torrance,CA,90503,921000,4,2.5,126 - Central Torrance,2386,166497,2007,331,386,169,Sold,,,http://www.redfin.com/CA/Torrance/2881-Maricopa-St-90503/home/17227517,CRMLS,PV19034897,N,Y,33.840266,-118.336607
PAST SALE,May-30-2018,Single Family Residential,5102 Calle De Ricardo,Torrance,CA,90505,1100000,4,1.75,128 - Hollywood Riviera,1597,7171,1956,617,689,,Sold,,,http://www.redfin.com/CA/Torrance/5102-Cll-De-Ricardo-90505/home/7719838,CRMLS,SB18088391,N,Y,33.807982,-118.3699123
PAST SALE,March-15-2018,Single Family Residential,5644 Marialinda St,Torrance,CA,90503,1160000,4,1.75,131 - West Torrance,1526,6678,1959,693,760,,Sold,,,http://www.redfin.com/CA/Torrance/5644-Marialinda-St-90503/home/7712243,CRMLS,SB18034332,N,Y,33.8458879,-118.375663
PAST SALE,September-27-2018,Single Family Residential,5601 Sara Dr,Torrance,CA,90503,1265000,4,2.75,131 - West Torrance,1873,7991,1959,497,675,,Sold,,,http://www.redfin.com/CA/Torrance/5601-Sara-Dr-90503/home/7712249,CRMLS,SB18186804,N,Y,33.8460053,-118.3740893
PAST SALE,August-28-2018,Single Family Residential,5008 Reynolds Rd,Torrance,CA,90505,1175000,4,3.0,129 - South Torrance,1861,5900,1954,527,631,,Sold,,,http://www.redfin.com/CA/Torrance/5008-Reynolds-Rd-90505/home/7717529,CRMLS,PV18165641,N,Y,33.821836,-118.3675911
PAST SALE,November-26-2019,Single Family Residential,20503 Amie Ave,Torrance,CA,90503,1215000,4,4.0,126 - Central Torrance,2162,6382,1965,72,562,,Sold,,,http://www.redfin.com/CA/Torrance/20503-Amie-Ave-90503/unit-T/home/7715834,CRMLS,SB19211581,N,Y,33.8448207,-118.3496191
PAST SALE,November-9-2018,Single Family Residential,5420 Linda Dr,Torrance,CA,90505,1770000,4,2.0,129 - South Torrance,2027,10174,1948,454,873,,Sold,,,http://www.redfin.com/CA/Torrance/5420-Linda-Dr-90505/home/7710224,CRMLS,SB18240932,N,Y,33.8168462,-118.3721805
PAST SALE,July-22-2019,Single Family Residential,21414 Evalyn Ave,Torrance,CA,90503,906000,4,2.0,130 - Southwood,1707,5326,1955,199,531,,Sold,,,http://www.redfin.com/CA/Torrance/21414-Evalyn-Ave-90503/home/7710915,CRMLS,SB19126978,N,Y,33.8341431,-118.3627483
PAST SALE,April-13-2018,Single Family Residential,440 N Prospect Ave,Redondo Beach,CA,90277,1210000,4,3.0,155 - S Redondo Bch N of Torrance Bl,1855,3565,1965,664,652,,Sold,,,http://www.redfin.com/CA/Redondo-Beach/440-N-Prospect-Ave-90277/home/7699921,CRMLS,SB18044582,N,Y,33.8509459,-118.377784
PAST SALE,July-23-2018,Single Family Residential,19718 Redbeam Ave,Torrance,CA,90503,1025000,4,2.0,131 - West Torrance,1784,5461,1969,563,575,,Sold,,,http://www.redfin.com/CA/Torrance/19718-Redbeam-Ave-90503/home/7713799,CRMLS,OC18133521,N,Y,33.851995,-118.3752987
PAST SALE,November-15-2019,Single Family Residential,19927 Tomlee Ave,Torrance,CA,90503,1350000,4,2.5,131 - West Torrance,2284,5731,1970,83,591,,Sold,,,http://www.redfin.com/CA/Torrance/19927-Tomlee-Ave-90503/home/7713110,CRMLS,SB19230994,N,Y,33.8505616,-118.3773327
PAST SALE,December-27-2019,Single Family Residential,19801 Linda Dr,Torrance,CA,90503,1320000,4,3.5,131 - West Torrance,2330,5000,1969,41,567,,Sold,,,http://www.redfin.com/CA/Torrance/19801-Linda-Dr-90503/home/7713789,CRMLS,SB19242873,N,Y,33.8519174,-118.3749161
PAST SALE,October-3-2018,Single Family Residential,5006 Sharynne Ln,Torrance,CA,90505,1750000,4,2.75,129 - South Torrance,2600,8681,1949,491,673,,Sold,,,http://www.redfin.com/CA/Torrance/5006-Sharynne-Ln-90505/home/7718633,CRMLS,SB18202801,N,Y,33.8197671,-118.3676754
PAST SALE,July-26-2019,Single Family Residential,5234 Bindewald Rd,Torrance,CA,90505,1600000,4,3.0,129 - South Torrance,3088,6044,1990,195,518,,Sold,,,http://www.redfin.com/CA/Torrance/5234-Bindewald-Rd-90505/home/7718877,CRMLS,SB19099127,N,Y,33.8171328,-118.3679493
PAST SALE,February-16-2018,Single Family Residential,4418 W 233rd St,Torrance,CA,90505,965000,4,1.75,129 - South Torrance,1954,6001,1960,720,494,,Sold,,,http://www.redfin.com/CA/Torrance/4418-W-233rd-St-90505/home/7718291,CRMLS,SB17280370,N,Y,33.8147006,-118.3608274
PAST SALE,September-13-2018,Single Family Residential,23315 Susana Ave,Torrance,CA,90505,1265000,4,2.0,128 - Hollywood Riviera,1684,6667,1954,511,751,,Sold,,,http://www.redfin.com/CA/Torrance/23315-Susana-Ave-90505/home/7719224,CRMLS,SB18160531,N,Y,33.8145316,-118.3742719
PAST SALE,August-29-2019,Single Family Residential,23327 Susana Ave,Torrance,CA,90505,1093000,4,1.75,128 - Hollywood Riviera,1854,6668,1954,161,590,,Sold,,,http://www.redfin.com/CA/Torrance/23327-Susana-Ave-90505/home/7719226,CRMLS,PV19123834,N,Y,33.8142108,-118.3742719
PAST SALE,May-2-2018,Single Family Residential,22020 Kathryn Ave,Torrance,CA,90503,1050500,4,2.75,130 - Southwood,2353,5995,1983,645,446,,Sold,,,http://www.redfin.com/CA/Torrance/22020-Kathryn-Ave-90503/home/7711541,CRMLS,SB18035597,N,Y,33.8278514,-118.3608274
PAST SALE,May-17-2018,Single Family Residential,3407 W 229th Pl,Torrance,CA,90505,1000000,4,2.5,127 - South East Torrance - West,2238,7201,1963,630,447,,Sold,,,http://www.redfin.com/CA/Torrance/3407-W-229th-Pl-90505/home/7658064,CRMLS,SB18051027,N,Y,33.81849,-118.3449405
PAST SALE,June-28-2019,Single Family Residential,2806 W 234th St,Torrance,CA,90505,1265000,4,3.25,127 - South East Torrance - West,2796,6656,1965,223,452,,Sold,,,http://www.redfin.com/CA/Torrance/2806-W-234th-St-90505/home/7664926,CRMLS,SB19119872,N,Y,33.8153832,-118.33571
PAST SALE,July-18-2019,Single Family Residential,2722 W 233rd St,Torrance,CA,90505,1128000,4,3.0,127 - South East Torrance - West,2556,6091,1965,203,441,,Sold,,,http://www.redfin.com/CA/Torrance/2722-W-233rd-St-90505/home/7664958,CRMLS,SB19123799,N,Y,33.8155664,-118.3342093
PAST SALE,May-31-2018,Single Family Residential,2734 Loftyview Dr,Torrance,CA,90505,961000,4,1.75,125 - Walteria,1974,7322,1954,616,487,,Sold,,,http://www.redfin.com/CA/Torrance/2734-Loftyview-Dr-90505/home/7721634,CRMLS,SB18090260,N,Y,33.7859287,-118.3392299
PAST SALE,September-28-2018,Single Family Residential,2706 Loftyview Dr,Torrance,CA,90505,1045000,4,3.0,125 - Walteria,2276,4894,1954,496,459,,Sold,,,http://www.redfin.com/CA/Torrance/2706-Loftyview-Dr-90505/home/7721641,CRMLS,PV18198766,N,Y,33.7849711,-118.338684
PAST SALE,October-12-2018,Single Family Residential,2849 Windmill Rd,Torrance,CA,90505,1059000,4,2.0,125 - Walteria,2072,7070,1975,482,511,,Sold,,,http://www.redfin.com/CA/Torrance/2849-Windmill-Rd-90505/home/7727878,CRMLS,SB18211026,N,Y,33.791949,-118.3385478
PAST SALE,April-5-2019,Single Family Residential,2527 Brian Ave,Torrance,CA,90505,960000,4,2.5,125 - Walteria,2129,5981,1955,307,451,,Sold,,,http://www.redfin.com/CA/Torrance/2527-Brian-Ave-90505/home/7721978,CRMLS,SB18239034,N,Y,33.7890457,-118.3323326
PAST SALE,,Single Family Residential,23323 Almarosa Ave,Torrance,CA,90505,940000,4,2.0,,1799,8037,1964,,523,,,,,http://www.redfin.com/CA/Torrance/23323-Almarosa-Ave-90505/home/7664873,,,N,Y,33.8142279,-118.3320175
PAST SALE,May-22-2019,Single Family Residential,1034 Palos Verdes Blvd,Redondo Beach,CA,90277,1285000,4,3.5,156 - S Redondo Bch S of Torrance Bl,1940,4763,1952,260,662,,Sold,,,http://www.redfin.com/CA/Redondo-Beach/1034-Palos-Verdes-Blvd-90277/home/7706161,CRMLS,AR19008088,N,Y,33.8225164,-118.3757268
PAST SALE,June-5-2019,Single Family Residential,437 Calle Mayor,Redondo Beach,CA,90277,1660000,4,2.5,128 - Hollywood Riviera,2814,8430,1954,246,590,,Sold,,,http://www.redfin.com/CA/Redondo-Beach/437-Calle-Mayor-90277/home/7709371,CRMLS,SB19065966,N,Y,33.8108946,-118.378527
PAST SALE,November-1-2018,Single Family Residential,349 Paseo De Gracia,Redondo Beach,CA,90277,1642500,4,3.0,128 - Hollywood Riviera,2636,6854,1946,462,623,,Sold,,,http://www.redfin.com/CA/Redondo-Beach/349-Paseo-De-Gracia-90277/home/7709250,CRMLS,SB18191599,N,Y,33.8135508,-118.3758969
PAST SALE,March-7-2019,Single Family Residential,2886 W 232nd St,Torrance,CA,90505,1082000,4,2.5,127 - South East Torrance - West,2238,6138,1963,336,483,,Sold,,,http://www.redfin.com/CA/Torrance/2886-W-232nd-St-90505/home/7658899,CRMLS,SB19010326,N,Y,33.8172741,-118.3381361
PAST SALE,November-14-2018,Single Family Residential,2906 W 234th St,Torrance,CA,90505,1050000,4,2.5,127 - South East Torrance - West,2238,6017,1963,449,469,,Sold,,,http://www.redfin.com/CA/Torrance/2906-W-234th-St-90505/home/7658958,CRMLS,PV18205524,N,Y,33.8166503,-118.338547
PAST SALE,April-3-2019,Single Family Residential,2671 W 232nd St,Torrance,CA,90505,1080000,4,2.25,127 - South East Torrance - West,2404,6075,1965,309,449,,Sold,,,http://www.redfin.com/CA/Torrance/2671-W-232nd-St-90505/home/7665041,CRMLS,SB19020629,N,Y,33.8162862,-118.3329308
PAST SALE,April-12-2019,Single Family Residential,2645 W 231st St,Torrance,CA,90505,1175000,4,2.25,South East Torrance - West,2404,6002,1965,300,489,,Sold,,,http://www.redfin.com/CA/Torrance/2645-W-231st-St-90505/home/7665069,TheMLS,19-434316,N,Y,33.8168005,-118.3321545
PAST SALE,June-1-2018,Single Family Residential,2619 W 225th St,Torrance,CA,90505,920000,4,2.0,127 - South East Torrance - West,1499,6100,1960,615,614,,Sold,,,http://www.redfin.com/CA/Torrance/2619-W-225th-St-90505/home/7664391,CRMLS,PV18107825,N,Y,33.821674,-118.3311043
PAST SALE,May-15-2019,Single Family Residential,2421 Santa Cruz Ct,Torrance,CA,90501,962000,4,3.0,134 - Old Torrance,2378,6856,1977,267,405,,Sold,,,http://www.redfin.com/CA/Torrance/2421-Santa-Cruz-Ct-90501/home/7653477,CRMLS,RS19071809,N,Y,33.8227213,-118.3269034
PAST SALE,November-7-2018,Single Family Residential,2517 Dorset Dr,Torrance,CA,90503,950000,4,3.0,126 - Central Torrance,2536,3798,1992,456,375,275,Sold,,,http://www.redfin.com/CA/Torrance/2517-Dorset-Dr-90503/home/7654980,CRMLS,SB18210961,N,Y,33.826295,-118.329426
PAST SALE,April-25-2018,Single Family Residential,524 Via La Selva,Redondo Beach,CA,90277,2731000,4,4.5,128 - Hollywood Riviera,3200,6796,2016,652,853,,Sold,,,http://www.redfin.com/CA/Redondo-Beach/524-Via-La-Selva-90277/home/7708451,CRMLS,SB18095887,N,Y,33.8099599,-118.3811855
PAST SALE,March-1-2018,Single Family Residential,23404 Elm Ave,Torrance,CA,90505,1100000,4,3.5,127 - South East Torrance - West,2556,7932,1965,707,430,,Sold,,,http://www.redfin.com/CA/Torrance/23404-Elm-Ave-90505/home/7664893,CRMLS,SB18007352,N,Y,33.8141314,-118.3325655
PAST SALE,June-1-2018,Single Family Residential,5613 Calle De Arboles,Torrance,CA,90505,1875000,4,3.5,128 - Hollywood Riviera,2581,6511,1955,615,726,,Sold,,,http://www.redfin.com/CA/Torrance/5613-Calle-de-Arboles-90505/home/7720018,CRMLS,SB18058123,N,Y,33.8048366,-118.3738382
PAST SALE,January-28-2020,Single Family Residential,23813 LADEENE Ave,Torrance,CA,90505,1020000,4,2.0,129 - South Torrance,1923,6150,1962,9,530,,Sold,,,http://www.redfin.com/CA/Torrance/23813-Ladeene-Ave-90505/home/7718607,CRMLS,SB19266849,N,Y,33.809832,-118.3571028
PAST SALE,January-29-2020,Single Family Residential,25254 Denny Rd,Torrance,CA,90505,925000,4,2.5,125 - Walteria,2192,3460,1997,8,422,110,Sold,,,http://www.redfin.com/CA/Torrance/25254-Denny-Rd-90505/home/7721430,CRMLS,SB19274658,N,Y,33.793993,-118.338259
PAST SALE,July-9-2019,Single Family Residential,2367 W 238th St,Torrance,CA,90501,1029500,4,4.5,135 - South East Torrance - East,3362,6599,1987,212,306,,Sold,,,http://www.redfin.com/CA/Torrance/2367-238th-St-90501/home/7660852,CRMLS,SB19113810,N,Y,33.8089705,-118.3248714
