SALE TYPE,SOLD DATE,PROPERTY TYPE,ADDRESS,CITY,STATE OR PROVINCE,ZIP OR POSTAL CODE,PRICE,BEDS,BATHS,LOCATION,SQUARE FEET,LOT SIZE,YEAR BUILT,DAYS ON MARKET,$/SQUARE FEET,HOA/MONTH,STATUS,NEXT OPEN HOUSE START TIME,NEXT OPEN HOUSE END TIME,URL (SEE http://www.redfin.com/buy-a-home/comparative-market-analysis FOR INFO ON PRICING),SOURCE,MLS#,FAVORITE,INTERESTED,LATITUDE,LONGITUDE
PAST SALE,September-27-2018,Single Family Residential,1625 E Balard St,Carson,CA,90745,590000,4,2.0,136 - Central Carson,1569,5538,1963,485,376,,Sold,,,http://www.redfin.com/CA/Carson/1625-E-Balard-St-90745/home/7633902,CRMLS,SB18097314,N,Y,33.8390164,-118.2424062
PAST SALE,October-18-2018,Single Family Residential,23207 Caroldale Ave,Carson,CA,90745,580000,3,1.5,139 - South Carson,1207,5898,1957,464,481,,Sold,,,http://www.redfin.com/CA/Carson/23207-Caroldale-Ave-90745/home/7656619,CRMLS,SB18220267,N,Y,33.8155128,-118.2841559
PAST SALE,March-30-2018,Single Family Residential,708 E Elsmere Dr,Carson,CA,90746,560000,3,2.0,137 - North Carson,1432,6114,1964,666,391,,Sold,,,http://www.redfin.com/CA/Carson/708-E-Elsmere-Dr-90746/home/7632087,CRMLS,SB18047379,N,Y,33.8540521,-118.262598
PAST SALE,February-20-2019,Single Family Residential,19326 Huggins Dr,Carson,CA,90746,590000,4,2.0,137 - North Carson,1577,6511,1962,339,374,,Sold,,,http://www.redfin.com/CA/Carson/19326-Huggins-Dr-90746/home/7632972,CRMLS,PW18274480,N,Y,33.8551449,-118.2488478
PAST SALE,April-4-2019,Single Family Residential,20919 Menlo Ave,Torrance,CA,90502,582000,3,2.0,123 - County Strip,1408,5300,1957,296,413,,Sold,,,http://www.redfin.com/CA/Torrance/20919-Menlo-Ave-90502/home/7647358,CRMLS,SB19029998,N,Y,33.8400959,-118.2879029
PAST SALE,April-23-2019,Single Family Residential,24732 Panama Ave,Carson,CA,90745,572000,3,2.0,139 - South Carson,1335,4634,1967,277,428,,Sold,,,http://www.redfin.com/CA/Carson/24732-Panama-Ave-90745/home/7668864,CRMLS,SB19058310,N,Y,33.8006541,-118.2679425
PAST SALE,June-19-2019,Single Family Residential,18727 Milmore Ave,Carson,CA,90746,595000,4,2.0,137 - North Carson,2400,5302,1964,220,248,,Sold,,,http://www.redfin.com/CA/Carson/18727-Milmore-Ave-90746/home/7641986,CRMLS,SB19081963,N,Y,33.8601731,-118.2750682
PAST SALE,June-25-2019,Single Family Residential,20602 Mariposa Ave,Torrance,CA,90502,570000,4,2.0,123 - County Strip,1234,5045,1956,214,462,,Sold,,,http://www.redfin.com/CA/Torrance/20602-Mariposa-Ave-90502/home/7649265,CRMLS,PV19113857,N,Y,33.8434838,-118.2981334
PAST SALE,July-1-2019,Single Family Residential,20516 Kenwood Ave,Torrance,CA,90502,550000,2,1.0,123 - County Strip,1054,10055,1952,208,522,,Sold,,,http://www.redfin.com/CA/Torrance/20516-Kenwood-Ave-90502/home/7649315,CRMLS,SB19095954,N,Y,33.8444435,-118.2972352
PAST SALE,July-12-2019,Single Family Residential,19446 Coslin Ave,Carson,CA,90746,579000,3,2.0,137 - North Carson,1465,6683,1962,197,395,,Sold,,,http://www.redfin.com/CA/Carson/19446-Coslin-Ave-90746/home/7632952,CRMLS,SB19116856,N,Y,33.853722,-118.250538
PAST SALE,February-9-2018,Single Family Residential,1212 E Dimondale Dr,Carson,CA,90746,553000,4,3.0,136 - Central Carson,1822,4851,1970,715,304,,Sold,,,http://www.redfin.com/CA/Carson/1212-E-Dimondale-Dr-90746/home/7665248,CRMLS,PW17271720,N,Y,33.8484973,-118.2509035
PAST SALE,September-14-2018,Single Family Residential,318 W 235th St,Carson,CA,90745,570000,4,2.5,699 - Not Defined,1698,5465,1952,498,336,,Sold,,,http://www.redfin.com/CA/Carson/318-W-235th-St-90745/home/7637310,CRMLS,PW18170189,N,Y,33.811711,-118.2813034
PAST SALE,June-8-2018,Single Family Residential,22119 Jay Pl,Torrance,CA,90502,590000,4,1.75,123 - County Strip,1455,3189,1970,596,405,,Sold,,,http://www.redfin.com/CA/Torrance/22119-Jay-Pl-90502/home/7644510,CRMLS,SB18087030,N,Y,33.8265695,-118.2971286
PAST SALE,October-25-2018,Single Family Residential,19208 Annalee Ave,Carson,CA,90746,550000,4,2.0,North Carson,1472,6820,1961,457,374,,Sold,,,http://www.redfin.com/CA/Carson/19208-Annalee-Ave-90746/home/7632840,TheMLS,18-383124,N,Y,33.8567297,-118.2529592
PAST SALE,July-20-2018,Single Family Residential,19911 Tillman Ave,Carson,CA,90746,550000,4,2.0,137 - North Carson,1712,4579,1970,554,321,,Sold,,,http://www.redfin.com/CA/Carson/19911-Tillman-Ave-90746/home/7666484,CRMLS,IV18132072,N,Y,33.8504865,-118.2538729
PAST SALE,November-21-2019,Single Family Residential,19115 Haigler Dr,Carson,CA,90746,560000,4,2.0,137 - North Carson,1478,7013,1960,65,379,,Sold,,,http://www.redfin.com/CA/Carson/19115-Haigler-Dr-90746/home/7632308,CRMLS,RS19239381,N,Y,33.8570171,-118.261319
PAST SALE,April-24-2019,Single Family Residential,923 E Joel St,Carson,CA,90745,573500,3,2.0,136 - Central Carson,1130,5448,1959,276,508,,Sold,,,http://www.redfin.com/CA/Carson/923-E-Joel-St-90745/home/7637929,CRMLS,DW19050895,N,Y,33.8249222,-118.2584411
PAST SALE,,Single Family Residential,838 E Joel St,Carson,CA,90745,565000,3,2.0,,1429,4908,1960,,395,,,,,http://www.redfin.com/CA/Carson/838-E-Joel-St-90745/home/7638124,,,N,Y,33.8244703,-118.2600171
PAST SALE,June-27-2019,Single Family Residential,21923 Hansom Ave,Carson,CA,90745,565000,3,2.0,699 - Not Defined,1428,5137,1962,212,396,,Sold,,,http://www.redfin.com/CA/Carson/21923-Hansom-Ave-90745/home/7637423,CRMLS,PW19108872,N,Y,33.8289669,-118.2628264
PAST SALE,July-10-2019,Single Family Residential,832 E Calbas St,Carson,CA,90745,585000,4,2.0,136 - Central Carson,1448,3172,1964,199,404,,Sold,,,http://www.redfin.com/CA/Carson/832-E-Calbas-St-90745/home/7637473,CRMLS,SB19128078,N,Y,33.8292161,-118.2602911
PAST SALE,April-26-2019,Single Family Residential,19802 Midtown Ave,Carson,CA,90746,580000,3,2.0,137 - North Carson,1362,5656,1965,274,426,,Sold,,,http://www.redfin.com/CA/Carson/19802-Midtown-Ave-90746/home/7665475,CRMLS,PW19052576,N,Y,33.8508829,-118.246792
PAST SALE,October-23-2019,Single Family Residential,990 244th St,Harbor City,CA,90710,551250,3,3.0,124 - Harbor City,1862,5280,1965,94,296,,Sold,,,http://www.redfin.com/CA/Harbor-City/990-244th-St-90710/home/7671583,CRMLS,SB19227775,N,Y,33.8028993,-118.293524
PAST SALE,April-4-2018,Single Family Residential,21208 Berendo Ave,Torrance,CA,90502,580000,3,1.75,122 - Harbor Gateway,1172,4932,1959,661,495,,Sold,,,http://www.redfin.com/CA/Torrance/21208-Berendo-Ave-90502/home/7647658,CRMLS,SB18013883,N,Y,33.836658,-118.2936576
PAST SALE,December-18-2018,Single Family Residential,21519 Budlong Ave,Torrance,CA,90502,569000,3,2.0,123 - County Strip,1225,5474,1956,403,464,,Sold,,,http://www.redfin.com/CA/Torrance/21519-Budlong-Ave-90502/home/7646028,CRMLS,SB18260948,N,Y,33.8325912,-118.2955456
PAST SALE,October-18-2019,Single Family Residential,21520 Budlong Ave,Torrance,CA,90502,595000,3,1.0,123 - County Strip,1225,5750,1956,99,486,,Sold,,,http://www.redfin.com/CA/Torrance/21520-Budlong-Ave-90502/home/7646000,CRMLS,DW19181918,N,Y,33.8326176,-118.2949592
PAST SALE,April-30-2019,Single Family Residential,17901 Mackeson Ct,Carson,CA,90746,600000,5,2.0,137 - North Carson,1568,3802,1966,270,383,,Sold,,,http://www.redfin.com/CA/Carson/17901-Mackeson-Ct-90746/home/7630602,CRMLS,SB18180051,N,Y,33.868414,-118.2569336
PAST SALE,June-13-2019,Single Family Residential,1550 E Gladwick St,Carson,CA,90746,600000,3,2.0,136 - Central Carson,1978,5218,1965,226,303,,Sold,,,http://www.redfin.com/CA/Carson/1550-E-Gladwick-St-90746/home/7631782,CRMLS,IG18255128,N,Y,33.8524474,-118.2419494
PAST SALE,September-26-2018,Single Family Residential,20013 Pricetown Ave,Carson,CA,90746,595000,3,2.0,138 - Rancho Dominguez,1604,5183,1971,486,371,,Sold,,,http://www.redfin.com/CA/Carson/20013-Pricetown-Ave-90746/home/7665555,CRMLS,SB18195095,N,Y,33.8499006,-118.2481625
PAST SALE,August-5-2019,Single Family Residential,1508 E Turmont St,Carson,CA,90746,589000,3,2.0,Rancho Dominguez,1947,5201,1964,173,303,,Sold,,,http://www.redfin.com/CA/Carson/1508-E-Turmont-St-90746/home/7631607,TheMLS,19-485472,N,Y,33.8531724,-118.2432286
PAST SALE,August-5-2019,Single Family Residential,19219 Midtown Ave,Carson,CA,90746,565000,3,2.0,137 - North Carson,1510,5000,1965,173,374,,Sold,,,http://www.redfin.com/CA/Carson/19219-Midtown-Ave-90746/home/7633057,CRMLS,DW19093377,N,Y,33.8562817,-118.2473402
PAST SALE,November-8-2019,Single Family Residential,1722 E Abbottson St,Carson,CA,90746,585000,3,2.0,138 - Rancho Dominguez,1313,4849,1967,78,446,,Sold,,,http://www.redfin.com/CA/Carson/1722-E-Abbottson-St-90746/home/7633589,CRMLS,PV19224249,N,Y,33.8502224,-118.2400077
PAST SALE,December-24-2019,Single Family Residential,1514 E Helmick St,Carson,CA,90746,600000,3,2.0,136 - Central Carson,1362,5076,1964,32,441,,Sold,,,http://www.redfin.com/CA/Carson/1514-E-Helmick-St-90746/home/7633493,CRMLS,OC19258842,N,Y,33.8516603,-118.242292
PAST SALE,June-28-2019,Single Family Residential,448 E 247th St,Carson,CA,90745,550000,4,2.0,139 - South Carson,1656,5045,1964,211,332,,Sold,,,http://www.redfin.com/CA/Carson/448-E-247th-St-90745/home/7668755,CRMLS,PW19094882,N,Y,33.800938,-118.2668005
PAST SALE,May-29-2019,Single Family Residential,22027 Gulf Ave,Carson,CA,90745,557000,3,2.0,139 - South Carson,1056,6135,1955,241,527,,Sold,,,http://www.redfin.com/CA/Carson/22027-Gulf-Ave-90745/home/7640687,CRMLS,PV19088087,N,Y,33.8270116,-118.2752052
PAST SALE,July-20-2019,Single Family Residential,318 E 222nd St,Carson,CA,90745,570000,3,1.5,136 - Central Carson,1154,5517,1957,189,494,,Sold,,,http://www.redfin.com/CA/Carson/318-E-222nd-St-90745/home/7640466,CRMLS,SB19095492,N,Y,33.8254622,-118.2715967
PAST SALE,July-9-2019,Single Family Residential,179 W 226th Pl,Carson,CA,90745,550000,3,2.0,136 - Central Carson,1194,5124,1956,200,461,,Sold,,,http://www.redfin.com/CA/Carson/179-W-226th-Pl-90745/home/7642667,CRMLS,SW19102125,N,Y,33.8208926,-118.2783569
PAST SALE,June-6-2019,Single Family Residential,1048 Park Circle Dr,Torrance,CA,90502,600000,3,2.5,123 - County Strip,1624,164752,1984,233,369,315,Sold,,,http://www.redfin.com/CA/Torrance/1048-Park-Cir-Dr-90502/home/7669685,CRMLS,SB19098638,N,Y,33.814929,-118.293785
PAST SALE,December-28-2018,Single Family Residential,906 Belson St,Torrance,CA,90502,565000,3,1.0,123 - County Strip,964,5266,1953,393,586,,Sold,,,http://www.redfin.com/CA/Torrance/906-Belson-St-90502/home/7669776,CRMLS,SB18252032,N,Y,33.8171823,-118.2906889
PAST SALE,April-22-2019,Single Family Residential,22929 Berendo Ave,Torrance,CA,90502,590000,3,2.0,123 - County Strip,1204,5666,1951,278,490,,Sold,,,http://www.redfin.com/CA/Torrance/22929-Berendo-Ave-90502/home/7669922,CRMLS,SB19042466,N,Y,33.8173613,-118.29416
PAST SALE,May-31-2019,Single Family Residential,1067 W 229th St,Torrance,CA,90502,555000,3,1.0,123 - County Strip,1148,6109,1951,239,483,,Sold,,,http://www.redfin.com/CA/Torrance/1067-W-229-St-90502/home/7669940,CRMLS,SW19039766,N,Y,33.8184169,-118.2947537
PAST SALE,January-9-2020,Single Family Residential,1031 W 227th St,Torrance,CA,90502,560000,3,1.0,123 - County Strip,964,5361,1954,16,581,,Sold,,,http://www.redfin.com/CA/Torrance/1031-W-227th-St-90502/home/7644811,CRMLS,IN19231475,N,Y,33.8198982,-118.2928949
PAST SALE,November-13-2019,Single Family Residential,619 E Lincoln St,Carson,CA,90745,580000,4,1.75,139 - South Carson,1926,3007,1986,73,301,,Sold,,,http://www.redfin.com/CA/Carson/619-E-Lincoln-St-90745/home/7667892,CRMLS,PW19229653,N,Y,33.8076462,-118.2633403
PAST SALE,June-21-2019,Single Family Residential,21339 Conradi Ave,Torrance,CA,90502,565000,3,2.0,123 - County Strip,1092,5021,1958,218,517,,Sold,,,http://www.redfin.com/CA/Torrance/21339-Conradi-Ave-90502/home/7645657,CRMLS,SB19112521,N,Y,33.8345806,-118.2889534
PAST SALE,May-8-2019,Single Family Residential,21119 New Hampshire Ave,Torrance,CA,90502,580000,3,2.0,123 - County Strip,1169,5345,1960,262,496,,Sold,,,http://www.redfin.com/CA/Torrance/21119-New-Hampshire-Ave-90502/home/7647605,CRMLS,DW19075249,N,Y,33.8376923,-118.2922418
PAST SALE,March-1-2019,Single Family Residential,1123 Greenhedge St,Torrance,CA,90502,582750,3,2.0,123 - County Strip,1205,5241,1953,330,484,,Sold,,,http://www.redfin.com/CA/Torrance/1123-Greenhedge-St-90502/home/7647875,CRMLS,WS18296773,N,Y,33.8414285,-118.2957585
PAST SALE,August-10-2018,Single Family Residential,20412 Catalina St,Torrance,CA,90502,578000,3,2.0,123 - County Strip,1201,6174,1945,533,481,,Sold,,,http://www.redfin.com/CA/Torrance/20412-Catalina-St-90502/home/7649393,CRMLS,PV18122328,N,Y,33.8452182,-118.2936872
PAST SALE,April-26-2019,Single Family Residential,126 W 219th St,Carson,CA,90745,575500,3,2.0,136 - Central Carson,1406,6744,1959,274,409,,Sold,,,http://www.redfin.com/CA/Carson/126-W-219th-St-90745/home/7643659,CRMLS,OC19052897,N,Y,33.8292761,-118.2783569
PAST SALE,June-27-2019,Single Family Residential,22111 Main St #14,Carson,CA,90745,579000,2,2.5,699 - Not Defined,1482,45628,2016,212,391,165,Sold,,,http://www.redfin.com/CA/Carson/22111-S-Main-St-90745/unit-14/home/143517521,CRISNet,SR19078380,N,Y,33.8264335,-118.2772471
PAST SALE,January-7-2020,Single Family Residential,22112 Nicolle Ave,Carson,CA,90745,590000,4,2.75,140 - East Carson,1842,5325,1959,18,320,,Sold,,,http://www.redfin.com/CA/Carson/22112-Nicolle-Ave-90745/home/7642249,CRMLS,PW19257640,N,Y,33.826324,-118.2805493
PAST SALE,May-25-2018,Single Family Residential,214 E Bradrick Dr,Carson,CA,90745,599000,4,2.0,136 - Central Carson,1624,5208,1962,610,369,,Sold,,,http://www.redfin.com/CA/Carson/214-E-Bradrick-Dr-90745/home/7639177,CRMLS,SB18034571,N,Y,33.8371362,-118.2749769
PAST SALE,January-4-2019,Single Family Residential,306 E Clarion Dr,Carson,CA,90745,569000,3,2.0,Central Carson,1332,4782,1962,386,427,,Sold,,,http://www.redfin.com/CA/Carson/306-E-Clarion-Dr-90745/home/7639226,TheMLS,18-391070,N,Y,33.8358292,-118.2720078
PAST SALE,June-6-2018,Single Family Residential,21509 Craig Ct,Carson,CA,90745,569000,3,2.0,136 - Central Carson,1373,4939,1962,598,414,,Sold,,,http://www.redfin.com/CA/Carson/21509-Craig-Ct-90745/home/7639450,CRMLS,SB18077593,N,Y,33.8332248,-118.2732868
PAST SALE,October-2-2019,Single Family Residential,21329 Ronan Ave,Carson,CA,90745,580000,4,2.0,137 - North Carson,1613,5264,1963,115,360,,Sold,,,http://www.redfin.com/CA/Carson/21329-Ronan-Ave-90745/home/7639600,CRMLS,PW19150528,N,Y,33.8344726,-118.2739948
PAST SALE,October-1-2019,Single Family Residential,221 W 214th St,Carson,CA,90745,565000,3,2.0,136 - Central Carson,1309,4778,1952,116,432,,Sold,,,http://www.redfin.com/CA/Carson/221-W-214th-St-90745/home/7643297,CRMLS,SB19206203,N,Y,33.8345472,-118.2808691
PAST SALE,October-1-2019,Single Family Residential,22700 Enola Ave,Carson,CA,90745,569900,3,2.0,139 - South Carson,1550,6617,1959,116,368,,Sold,,,http://www.redfin.com/CA/Carson/22700-Enola-Ave-90745/home/7638245,CRMLS,TR19188146,N,Y,33.8195341,-118.2730127
PAST SALE,November-22-2019,Single Family Residential,103 E 234th St,Carson,CA,90745,592000,3,2.0,699 - Not Defined,1250,6178,1951,64,474,,Sold,,,http://www.redfin.com/CA/Carson/103-234th-St-90745/home/7635446,CRMLS,PW19238585,N,Y,33.8134858,-118.275127
PAST SALE,April-25-2019,Single Family Residential,1051 W 226th St,Torrance,CA,90502,550000,3,1.0,123 - County Strip,1160,5712,1954,275,474,,Sold,,,http://www.redfin.com/CA/Torrance/1051-W-226th-St-90502/home/7644845,CRMLS,PV19056841,N,Y,33.8206428,-118.2936009
PAST SALE,April-11-2018,Single Family Residential,21904 Weiser Ave,Carson,CA,90745,590000,4,1.75,136 - Central Carson,1560,7097,1964,654,378,,Sold,,,http://www.redfin.com/CA/Carson/21904-Weiser-Ave-90745/home/7634783,CRMLS,WS18052934,N,Y,33.8295727,-118.2498985
PAST SALE,March-1-2018,Single Family Residential,21901 Ackmar Ave,Carson,CA,90745,580000,4,2.0,699 - Not Defined,1620,6730,1964,695,358,,Sold,,,http://www.redfin.com/CA/Carson/21901-Ackmar-Ave-90745/home/7634905,CRMLS,PW18014471,N,Y,33.8291434,-118.2477513
PAST SALE,June-22-2018,Single Family Residential,1434 E 220th St,Carson,CA,90745,590888,4,1.75,139 - South Carson,1820,5759,1964,582,325,,Sold,,,http://www.redfin.com/CA/Carson/1434-E-220th-St-90745/home/7634937,CRMLS,SB18109669,N,Y,33.8276748,-118.2472031
PAST SALE,August-21-2018,Single Family Residential,1623 E Bach St,Carson,CA,90745,581750,4,2.0,136 - Central Carson,1859,5467,1964,522,313,,Sold,,,http://www.redfin.com/CA/Carson/1623-E-Bach-St-90745/home/7635157,CRMLS,PV18149955,N,Y,33.8267963,-118.2429724
PAST SALE,October-18-2019,Single Family Residential,1413 E 218th St,Carson,CA,90745,600000,4,2.5,140 - East Carson,1840,5602,1965,99,326,,Sold,,,http://www.redfin.com/CA/Carson/1413-E-218th-St-90745/home/7634845,CRMLS,TR19220600,N,Y,33.8304506,-118.2479798
PAST SALE,December-20-2019,Single Family Residential,21706 Acarus Ave,Carson,CA,90745,566000,4,3.0,136 - Central Carson,1813,5489,1965,36,312,,Sold,,,http://www.redfin.com/CA/Carson/21706-Acarus-Ave-90745/home/7634831,CRMLS,DW19167751,N,Y,33.8313515,-118.2508121
PAST SALE,July-31-2018,Single Family Residential,515 E Moorehaven Dr,Carson,CA,90746,580000,3,1.75,137 - North Carson,1410,6406,1963,543,411,,Sold,,,http://www.redfin.com/CA/Carson/515-E-Moorehaven-Dr-90746/home/7335242,CRMLS,DW18148543,N,Y,33.8785677,-118.2672116
PAST SALE,May-30-2019,Single Family Residential,536 E Cheriton Dr,Carson,CA,90746,585000,4,2.0,137 - North Carson,1526,5938,1963,240,383,,Sold,,,http://www.redfin.com/CA/Carson/536-E-Cheriton-Dr-90746/home/7335649,CRMLS,SB19032125,N,Y,33.8750992,-118.2670518
PAST SALE,October-29-2019,Single Family Residential,17233 Ambler Ave,Carson,CA,90746,591000,4,1.75,137 - North Carson,2018,6313,1963,88,293,,Sold,,,http://www.redfin.com/CA/Carson/17233-Ambler-Ave-90746/home/7335584,CRMLS,SB19226200,N,Y,33.8747463,-118.2696783
PAST SALE,August-7-2018,Single Family Residential,19302 Northwood Ave,Carson,CA,90746,580000,3,2.0,North Carson,1422,4930,1964,536,408,,Sold,,,http://www.redfin.com/CA/Carson/19302-Northwood-Ave-90746/home/7631437,TheMLS,18-348388,N,Y,33.8555411,-118.2417666
PAST SALE,November-15-2018,Single Family Residential,1859 E Helmick St,Carson,CA,90746,555000,3,2.0,136 - Central Carson,1362,6393,1964,436,407,,Sold,,,http://www.redfin.com/CA/Carson/1859-E-Helmick-St-90746/home/7631742,CRMLS,SB18236751,N,Y,33.8523073,-118.2360558
PAST SALE,August-1-2018,Single Family Residential,19115 Hillford Ave,Carson,CA,90746,550000,3,2.0,137 - North Carson,1750,5003,1965,542,314,,Sold,,,http://www.redfin.com/CA/Carson/19115-Hillford-Ave-90746/home/7633091,CRMLS,OC18144607,N,Y,33.8566102,-118.2456955
PAST SALE,December-21-2018,Single Family Residential,18509 Coltman Ave,Carson,CA,90746,590000,4,2.0,137 - North Carson,1650,5375,1964,400,358,,Sold,,,http://www.redfin.com/CA/Carson/18509-Coltman-Ave-90746/home/7641972,CRISNet,SR18281349,N,Y,33.8624916,-118.2742917
PAST SALE,February-26-2019,Single Family Residential,19928 Campaign Dr,Carson,CA,90746,574900,4,2.0,137 - North Carson,1612,4609,1968,333,357,,Sold,,,http://www.redfin.com/CA/Carson/19928-Campaign-Dr-90746/home/7666299,CRMLS,PW18256961,N,Y,33.8505708,-118.2570021
PAST SALE,March-6-2018,Single Family Residential,22729 Grace Ave,Carson,CA,90745,554000,4,2.0,139 - South Carson,1596,5089,1951,690,347,,Sold,,,http://www.redfin.com/CA/Carson/22729-Grace-Ave-90745/home/7638484,CRMLS,PW18018013,N,Y,33.8195921,-118.2682622
PAST SALE,November-27-2019,Single Family Residential,22623 Grace Ave,Carson,CA,90745,560000,3,1.0,139 - South Carson,1130,5017,1951,59,496,,Sold,,,http://www.redfin.com/CA/Carson/22623-Grace-Ave-90745/home/7638492,CRMLS,PV19233063,N,Y,33.8206753,-118.2682622
PAST SALE,May-10-2018,Single Family Residential,22224 Catskill Ave,Carson,CA,90745,575000,4,1.75,136 - Central Carson,1330,5834,1957,625,432,,Sold,,,http://www.redfin.com/CA/Carson/22224-Catskill-Ave-90745/home/7640456,CRMLS,RS18073388,N,Y,33.8248825,-118.2711856
PAST SALE,July-18-2018,Single Family Residential,166 E 213th St,Carson,CA,90745,561000,4,2.0,136 - Central Carson,1545,4808,1953,556,363,,Sold,,,http://www.redfin.com/CA/Carson/166-E-213th-St-90745/home/7639547,CRMLS,DW18115420,N,Y,33.8351452,-118.2766131
PAST SALE,October-10-2018,Single Family Residential,24736 Marbella Ave,Carson,CA,90745,557000,3,2.0,139 - South Carson,1828,4943,1969,472,305,,Sold,,,http://www.redfin.com/CA/Carson/24736-Marbella-Ave-90745/home/7669121,CRMLS,SB18190786,N,Y,33.800184,-118.2703178
PAST SALE,July-31-2019,Single Family Residential,706 E Acoma Dr,Carson,CA,90746,565000,3,1.5,137 - North Carson,1395,5199,1964,178,405,,Sold,,,http://www.redfin.com/CA/Carson/706-E-Acoma-Dr-90746/home/7340150,CRMLS,SB18290949,N,Y,33.8850354,-118.2620042
PAST SALE,December-13-2019,Single Family Residential,16108 Haskins Ln,Carson,CA,90746,600000,4,3.0,699 - Not Defined,2650,5669,2002,43,226,,Sold,,,http://www.redfin.com/CA/Carson/16108-Haskins-Ln-90746/home/8123683,CRMLS,SB19118949,N,Y,33.8858099,-118.2610881
PAST SALE,April-26-2019,Single Family Residential,825 E Meadbrook St,Carson,CA,90746,562500,3,2.5,137 - North Carson,1475,3521,1968,274,381,,Sold,,,http://www.redfin.com/CA/Carson/825-E-Meadbrook-St-90746/home/7630850,CRMLS,SB19057440,N,Y,33.8695087,-118.2599485
PAST SALE,September-10-2019,Single Family Residential,945 E Meadbrook St,Carson,CA,90746,552000,3,3.0,North Carson,1475,5761,1966,137,374,,Sold,,,http://www.redfin.com/CA/Carson/945-E-Meadbrook-St-90746/home/7630563,TheMLS,19-485250,N,Y,33.8695715,-118.2571163
PAST SALE,October-9-2019,Single Family Residential,17409 Scudder Ct,Carson,CA,90746,580000,4,2.0,137 - North Carson,1508,3003,1966,108,385,,Sold,,,http://www.redfin.com/CA/Carson/17409-Scudder-Ct-90746/home/7630353,CRMLS,PW19176467,N,Y,33.8726825,-118.2518629
PAST SALE,,Single Family Residential,17609 Holly Dr,Carson,CA,90746,556000,3,2.25,,1748,2790,1999,,318,,,,,http://www.redfin.com/CA/Carson/17609-Holly-Dr-90746/home/8094238,,,N,Y,33.8696268,-118.2507665
PAST SALE,December-20-2019,Single Family Residential,328 W 235th St,Carson,CA,90745,550000,3,1.0,139 - South Carson,1153,5618,1952,36,477,,Sold,,,http://www.redfin.com/CA/Carson/328-W-235th-St-90745/home/7637308,CRMLS,TR19237733,N,Y,33.8117012,-118.2817038
PAST SALE,April-22-2019,Single Family Residential,1721 E Gladwick St,Carson,CA,90746,589000,3,1.75,138 - Rancho Dominguez,1362,5850,1964,278,432,,Sold,,,http://www.redfin.com/CA/Carson/1721-E-Gladwick-St-90746/home/7631660,CRMLS,WS19028003,N,Y,33.8529469,-118.2399392
PAST SALE,August-7-2019,Single Family Residential,1873 E Abbottson St,Carson,CA,90746,590000,3,2.0,138 - Rancho Dominguez,1362,6238,1966,171,433,,Sold,,,http://www.redfin.com/CA/Carson/1873-E-Abbottson-St-90746/home/7633653,CRMLS,PW19147862,N,Y,33.8507875,-118.2355533
PAST SALE,December-2-2019,Single Family Residential,1885 E Helmick St,Carson,CA,90746,581000,3,2.0,699 - Not Defined,1362,5511,1964,54,427,,Sold,,,http://www.redfin.com/CA/Carson/1885-E-Helmick-St-90746/home/7631717,CRMLS,OC19196685,N,Y,33.8523244,-118.2352074
PAST SALE,May-15-2018,Single Family Residential,19102 Coslin Ave,Carson,CA,90746,600000,4,2.0,138 - Rancho Dominguez,1577,6324,1961,620,380,,Sold,,,http://www.redfin.com/CA/Carson/19102-Coslin-Ave-90746/home/7632881,CRMLS,SB18071954,N,Y,33.8569608,-118.2512233
PAST SALE,May-23-2019,Single Family Residential,542 E Realty St,Carson,CA,90745,600000,4,2.0,139 - South Carson,1568,6490,1955,247,383,,Sold,,,http://www.redfin.com/CA/Carson/542-Realty-St-90745/home/7668587,CRMLS,OC19087284,N,Y,33.8055303,-118.2647906
PAST SALE,November-1-2019,Single Family Residential,337 E Lincoln St,Carson,CA,90745,551500,3,1.0,139 - South Carson,1017,5454,1955,85,542,,Sold,,,http://www.redfin.com/CA/Carson/337-E-Lincoln-St-90745/home/7668332,CRMLS,DW19217878,N,Y,33.8074328,-118.2694042
PAST SALE,December-12-2019,Single Family Residential,24014 Marbella Ave,Carson,CA,90745,600000,4,2.0,139 - South Carson,1393,5443,1955,44,431,,Sold,,,http://www.redfin.com/CA/Carson/24014-Marbella-Ave-90745/home/7668391,CRMLS,SB19222074,N,Y,33.8067416,-118.2704091
PAST SALE,July-25-2018,Single Family Residential,280 W 228th St,Carson,CA,90745,550000,3,2.0,136 - Central Carson,1486,5032,1968,549,370,,Sold,,,http://www.redfin.com/CA/Carson/280-W-228th-St-90745/home/7656853,CRMLS,PW18144157,N,Y,33.8187159,-118.2814628
PAST SALE,December-28-2018,Single Family Residential,102 W 230th St,Carson,CA,90745,590000,3,2.0,136 - Central Carson,1316,5058,1967,393,448,,Sold,,,http://www.redfin.com/CA/Carson/102-W-230th-St-90745/home/7656991,CRMLS,SB18281992,N,Y,33.8170089,-118.2763578
PAST SALE,May-9-2019,Single Family Residential,133 W 232nd Pl W,Carson,CA,90745,587500,3,1.0,139 - South Carson,1458,7512,1952,261,403,,Sold,,,http://www.redfin.com/CA/Carson/133-W-232nd-Pl-90745/home/7657016,CRMLS,PV19069449,N,Y,33.8150435,-118.2767126
PAST SALE,,Single Family Residential,24727 Marbella Ave,Carson,CA,90745,600000,5,3.0,,2338,5160,1969,,257,,,,,http://www.redfin.com/CA/Carson/24727-Marbella-Ave-90745/home/7669188,,,N,Y,33.800449,-118.2708659
PAST SALE,May-12-2018,Single Family Residential,21017 Millpoint Ave,Carson,CA,90745,550000,6,3.5,136 - Central Carson,2056,5962,1963,623,268,,Sold,,,http://www.redfin.com/CA/Carson/21017-Millpoint-Ave-90745/home/7633920,CRMLS,PW18064030,N,Y,33.8382534,-118.2420864
PAST SALE,July-26-2019,Single Family Residential,21417 Martin St,Carson,CA,90745,600000,4,2.0,140 - East Carson,1657,5435,1963,183,362,,Sold,,,http://www.redfin.com/CA/Carson/21417-Martin-St-90745/home/7634239,CRMLS,RS19134434,N,Y,33.8339951,-118.2443707
PAST SALE,August-30-2019,Single Family Residential,21016 Pontine Ave,Carson,CA,90745,551000,4,2.0,136 - Central Carson,1569,5794,1963,148,351,,Sold,,,http://www.redfin.com/CA/Carson/21016-Pontine-Ave-90745/home/7633928,CRMLS,OC19056883,N,Y,33.8383813,-118.2428631
PAST SALE,September-21-2018,Single Family Residential,512 W 218th Pl,Carson,CA,90745,555000,3,2.0,139 - South Carson,1436,7014,1988,491,386,,Sold,,,http://www.redfin.com/CA/Carson/512-W-218th-Pl-90745/home/7644025,CRMLS,SB18176746,N,Y,33.829639,-118.2847971
PAST SALE,November-28-2018,Single Family Residential,965 Oasis Dr,Torrance,CA,90502,583000,3,1.75,123 - County Strip,1280,4964,1962,423,455,,Sold,,,http://www.redfin.com/CA/Torrance/965-Oasis-Dr-90502/home/7670230,CRMLS,SB18240133,N,Y,33.8137185,-118.2921961
PAST SALE,October-5-2018,Single Family Residential,21213 Neptune Ave,Carson,CA,90745,599000,4,2.0,136 - Central Carson,1799,4991,1964,477,333,,Sold,,,http://www.redfin.com/CA/Carson/21213-Neptune-Ave-90745/home/7639255,CRMLS,SB18170350,N,Y,33.8364267,-118.2700894
PAST SALE,June-10-2019,Single Family Residential,21316 Island Ave,Carson,CA,90745,589000,3,2.0,136 - Central Carson,1350,4830,1964,229,436,,Sold,,,http://www.redfin.com/CA/Carson/21316-Island-Ave-90745/home/7640978,CRMLS,SB18294144,N,Y,33.8348097,-118.2669618
PAST SALE,August-1-2019,Single Family Residential,843 E Desford St,Carson,CA,90745,563000,3,2.0,136 - Central Carson,1369,4986,1963,177,411,,Sold,,,http://www.redfin.com/CA/Carson/843-E-Desford-St-90745/home/7640904,CRMLS,SB19152566,N,Y,33.8341555,-118.2601084
PAST SALE,August-22-2018,Single Family Residential,19404 Scobey Ave,Carson,CA,90746,592000,3,2.0,137 - North Carson,1432,7129,1964,521,413,,Sold,,,http://www.redfin.com/CA/Carson/19404-Scobey-Ave-90746/home/7632546,CRMLS,PW18157548,N,Y,33.8550706,-118.2553576
PAST SALE,June-4-2019,Single Family Residential,19414 Coslin Ave,Carson,CA,90746,592000,4,1.75,137 - North Carson,1577,6741,1962,235,375,,Sold,,,http://www.redfin.com/CA/Carson/19414-Coslin-Ave-90746/home/7632957,CRMLS,SB19078979,N,Y,33.854593,-118.2505837
PAST SALE,June-25-2018,Single Family Residential,20120 Quixley St,Carson,CA,90746,578000,3,3.0,North Carson,1822,6266,1968,579,317,,Sold,,,http://www.redfin.com/CA/Carson/20120-Quixley-St-90746/home/7666217,TheMLS,18-341688,N,Y,33.8493962,-118.2582583
PAST SALE,March-13-2019,Single Family Residential,20112 Scobey Ave,Carson,CA,90746,585000,4,3.0,136 - Central Carson,1872,4606,1970,318,313,,Sold,,,http://www.redfin.com/CA/Carson/20112-Scobey-Ave-90746/home/7666473,CRMLS,IN19013595,N,Y,33.8490834,-118.2541927
PAST SALE,August-15-2019,Single Family Residential,19414 Weiser Ave,Carson,CA,90746,575000,4,1.75,North Carson,1847,6405,1962,163,311,,Sold,,,http://www.redfin.com/CA/Carson/19414-Weiser-Ave-90746/home/7632994,TheMLS,19-480594,N,Y,33.8544077,-118.2497157
PAST SALE,September-5-2019,Single Family Residential,19509 Caney Ave,Carson,CA,90746,600000,4,2.0,137 - North Carson,1586,6200,1961,142,378,,Sold,,,http://www.redfin.com/CA/Carson/19509-Caney-Ave-90746/home/7632532,CRMLS,PW19130619,N,Y,33.8539152,-118.2549236
PAST SALE,December-20-2019,Single Family Residential,19302 Weiser Ave,Carson,CA,90746,589500,3,2.0,North Carson,1696,6475,1962,36,348,,Sold,,,http://www.redfin.com/CA/Carson/19302-Weiser-Ave-90746/home/7633001,TheMLS,19-499180,N,Y,33.8555708,-118.2497157
PAST SALE,March-9-2018,Single Family Residential,342 E Collamer Dr,Carson,CA,90746,570000,4,2.0,Rancho Dominguez,2054,5728,1963,687,278,,Sold,,,http://www.redfin.com/CA/Carson/342-E-Collamer-Dr-90746/home/7335488,TheMLS,17-293666,N,Y,33.8743239,-118.2704091
PAST SALE,January-14-2019,Single Family Residential,21243 Moneta Ave,Carson,CA,90745,590000,3,2.0,139 - South Carson,1231,5249,1947,376,479,,Sold,,,http://www.redfin.com/CA/Carson/21243-Moneta-Ave-90745/home/7643344,CRMLS,SB18277390,N,Y,33.835741,-118.2818739
PAST SALE,July-10-2018,Single Family Residential,21135 Broadwell Ave,Torrance,CA,90502,570000,3,2.0,123 - County Strip,1352,5857,1961,564,422,,Sold,,,http://www.redfin.com/CA/Torrance/21135-Broadwell-Ave-90502/home/7647584,CRMLS,IN18127316,N,Y,33.8377516,-118.2932922
PAST SALE,,Single Family Residential,347 E 219th St,Carson,CA,90745,580000,3,2.0,,1032,6515,1956,,562,,,,,http://www.redfin.com/CA/Carson/347-E-219th-St-90745/home/7639895,,,N,Y,33.8292997,-118.2706832
PAST SALE,November-2-2018,Single Family Residential,21237 Main St,Carson,CA,90745,550000,4,3.0,136 - Central Carson,1168,5321,1978,449,471,,Sold,,,http://www.redfin.com/CA/Carson/21237-Main-St-90745/home/7643242,CRMLS,DW18149809,N,Y,33.835797,-118.279432
PAST SALE,November-1-2018,Single Family Residential,1527 E Helmick St,Carson,CA,90746,550000,3,2.0,137 - North Carson,1978,5698,1964,450,278,,Sold,,,http://www.redfin.com/CA/Carson/1527-E-Helmick-St-90746/home/7631792,CRMLS,RS18204297,N,Y,33.8521091,-118.241858
PAST SALE,April-9-2019,Single Family Residential,1432 E Turmont St,Carson,CA,90746,570000,3,3.0,137 - North Carson,1798,5268,1965,291,317,,Sold,,,http://www.redfin.com/CA/Carson/1432-E-Turmont-St-90746/home/7665709,CRMLS,PW19036480,N,Y,33.8531481,-118.2451016
PAST SALE,April-13-2018,Single Family Residential,21719 Acarus Ave,Carson,CA,90745,559000,4,3.0,140 - East Carson,1638,5603,1965,652,341,,Sold,,,http://www.redfin.com/CA/Carson/21719-Acarus-Ave-90745/home/7634753,CRMLS,PW18031128,N,Y,33.8311063,-118.2513147
PAST SALE,,Single Family Residential,20123 Harlan Ave,Carson,CA,90746,560000,3,2.0,,1612,5050,1969,,347,,,,,http://www.redfin.com/CA/Carson/20123-Harlan-Ave-90746/home/7633445,,,N,Y,33.8487428,-118.2431372
PAST SALE,January-15-2019,Single Family Residential,21313 Legend Ave,Carson,CA,90745,570000,5,2.5,136 - Central Carson,1736,5534,1963,375,328,,Sold,,,http://www.redfin.com/CA/Carson/21313-Legend-Ave-90745/home/7634261,CRMLS,RS18186537,N,Y,33.834983,-118.2452387
PAST SALE,March-12-2019,Single Family Residential,1454 E 220th St,Carson,CA,90745,552000,4,1.75,136 - Central Carson,1796,5557,1964,319,307,,Sold,,,http://www.redfin.com/CA/Carson/1454-E-220th-St-90745/home/7634933,CRMLS,LG19033372,N,Y,33.8276846,-118.2465179
PAST SALE,March-15-2018,Single Family Residential,21408 Selwyn Ave,Carson,CA,90745,560000,5,2.0,136 - Central Carson,1613,4989,1963,681,347,,Sold,,,http://www.redfin.com/CA/Carson/21408-Selwyn-Ave-90745/home/7640905,CRMLS,PV18026557,N,Y,33.834353,-118.2600399
PAST SALE,February-7-2018,Single Family Residential,22822 Doble Ave,Torrance,CA,90502,570000,3,2.0,123 - County Strip,1166,4976,1953,717,489,,Sold,,,http://www.redfin.com/CA/Torrance/22822-Doble-Ave-90502/home/7669805,CRMLS,DW17261680,N,Y,33.8182391,-118.2911571
PAST SALE,July-26-2018,Single Family Residential,21125 S Van Deene Ave,Torrance,CA,90502,585000,3,2.0,123 - County Strip,1474,5964,1957,548,397,,Sold,,,http://www.redfin.com/CA/Torrance/21125-S-Van-Deene-Ave-90502/home/7645567,CRISNet,SR18132636,N,Y,33.837178,-118.2899582
PAST SALE,June-15-2018,Single Family Residential,912 Belson St,Torrance,CA,90502,565000,3,1.0,123 - County Strip,1010,4985,1953,589,559,,Sold,,,http://www.redfin.com/CA/Torrance/912-Belson-St-90502/home/7669777,CRMLS,PV18112002,N,Y,33.8172171,-118.2908716
PAST SALE,May-2-2018,Single Family Residential,22108 Rashdall Ave,Carson,CA,90745,560000,3,2.0,139 - South Carson,1320,5295,1960,633,424,,Sold,,,http://www.redfin.com/CA/Carson/22108-Rashdall-Ave-90745/home/7642293,CRMLS,SB18039563,N,Y,33.826476,-118.279696
PAST SALE,July-2-2018,Single Family Residential,20215 Dalfsen Ave,Carson,CA,90746,570000,4,2.0,136 - Central Carson,1488,5404,1965,572,383,,Sold,,,http://www.redfin.com/CA/Carson/20215-Dalfsen-Ave-90746/home/7633332,CRMLS,PW18125470,N,Y,33.8480408,-118.2348223
PAST SALE,May-25-2018,Single Family Residential,19819 Midtown Ave,Carson,CA,90746,567000,4,2.0,137 - North Carson,1612,4930,1971,610,352,,Sold,,,http://www.redfin.com/CA/Carson/19819-Midtown-Ave-90746/home/7665520,CRMLS,PW18076842,N,Y,33.8504659,-118.2473402
PAST SALE,July-11-2018,Single Family Residential,1433 Gladwick St,Carson,CA,90746,567000,3,2.0,138 - Rancho Dominguez,1362,5980,1964,563,416,,Sold,,,http://www.redfin.com/CA/Carson/1433-E-Gladwick-St-90746/home/7665729,CRMLS,RS18076333,N,Y,33.8528272,-118.2451016
PAST SALE,April-12-2018,Single Family Residential,856 E Penrod Dr,Carson,CA,90746,580000,3,3.0,North Carson,1604,4723,1978,653,362,,Sold,,,http://www.redfin.com/CA/Carson/856-E-Penrod-Dr-90746/home/7630693,TheMLS,18-314460,N,Y,33.8683785,-118.259172
PAST SALE,August-16-2018,Single Family Residential,909 Oakmere Dr,Harbor City,CA,90710,600000,4,3.0,Harbor City,2082,4968,1968,527,288,,Sold,,,http://www.redfin.com/CA/Harbor-City/909-Oakmere-Dr-90710/home/7671351,TheMLS,18-348578,N,Y,33.8069651,-118.290963
PAST SALE,June-5-2018,Single Family Residential,23518 Oakrest Ln,Harbor City,CA,90710,575000,4,3.0,124 - Harbor City,2330,5656,1965,599,247,,Sold,,,http://www.redfin.com/CA/Harbor-City/23518-Oakrest-Ln-90710/home/7670790,CRMLS,SB18043421,N,Y,33.8115401,-118.2974027
PAST SALE,March-15-2019,Single Family Residential,22808 Doble Ave,Torrance,CA,90502,575000,3,2.0,123 - County Strip,1136,4988,1953,316,506,,Sold,,,http://www.redfin.com/CA/Torrance/22808-Doble-Ave-90502/home/7669802,CRMLS,SB18266016,N,Y,33.8186732,-118.2911457
PAST SALE,December-7-2018,Single Family Residential,24612 Frampton Ave,Harbor City,CA,90710,565000,3,3.0,124 - Harbor City,1845,29153,1992,414,306,85,Sold,,,http://www.redfin.com/CA/Harbor-City/24612-Frampton-Ave-90710/home/7683146,CRMLS,SB18229887,N,Y,33.8009529,-118.2990011
PAST SALE,March-14-2018,Single Family Residential,21026 Dolores St,Carson,CA,90745,580000,3,2.0,136 - Central Carson,1367,5076,1963,682,424,,Sold,,,http://www.redfin.com/CA/Carson/21026-Dolores-St-90745/home/7639085,CRMLS,PW18029566,N,Y,33.8384136,-118.2720992
PAST SALE,June-12-2018,Single Family Residential,305 E Bradenhall Dr,Carson,CA,90746,589540,4,2.0,137 - North Carson,1563,6365,1963,592,377,,Sold,,,http://www.redfin.com/CA/Carson/305-E-Bradenhall-Dr-90746/home/7335416,CRMLS,PW18096963,N,Y,33.8762652,-118.2717109
PAST SALE,June-29-2018,Single Family Residential,1212 E Denwall Dr,Carson,CA,90746,585000,3,2.0,137 - North Carson,1300,4761,1970,575,450,,Sold,,,http://www.redfin.com/CA/Carson/1212-E-Denwall-Dr-90746/home/7665239,CRMLS,OC18088450,N,Y,33.8470767,-118.2523425
PAST SALE,February-15-2018,Single Family Residential,1218 E Gladwick St,Carson,CA,90746,550000,4,3.0,North Carson,1822,4959,1971,709,302,,Sold,,,http://www.redfin.com/CA/Carson/1218-E-Gladwick-St-90746/home/7665153,TheMLS,17-293312,N,Y,33.8521404,-118.2504467
PAST SALE,June-14-2018,Single Family Residential,21242 Menlo Ave,Torrance,CA,90502,569000,3,2.0,123 - County Strip,1476,5575,1969,590,386,,Sold,,,http://www.redfin.com/CA/Torrance/21242-Menlo-Ave-90502/home/7645611,CRMLS,SB18106082,N,Y,33.8356269,-118.2878115
PAST SALE,August-6-2018,Single Family Residential,344 W 231st St,Carson,CA,90745,560000,3,2.0,139 - South Carson,1503,5068,1968,537,373,,Sold,,,http://www.redfin.com/CA/Carson/344-W-231st-St-90745/home/7657168,CRMLS,SB18140279,N,Y,33.8153757,-118.2818282
PAST SALE,January-31-2018,Single Family Residential,354 E Clarion Dr,Carson,CA,90745,580000,5,2.0,136 - Central Carson,1604,5255,1964,724,362,,Sold,,,http://www.redfin.com/CA/Carson/354-E-Clarion-Dr-90745/home/7639275,CRMLS,SB17267594,N,Y,33.8357917,-118.2705461
PAST SALE,October-19-2018,Single Family Residential,1806 E 214th St,Carson,CA,90745,565000,3,1.75,136 - Central Carson,1111,6087,1961,463,509,,Sold,,,http://www.redfin.com/CA/Carson/1806-E-214th-St-90745/home/7634051,CRMLS,WS18217214,N,Y,33.8344489,-118.2401219
PAST SALE,August-10-2018,Single Family Residential,428 E Double St,Carson,CA,90745,600000,4,2.0,136 - Central Carson,1535,5043,1953,533,391,,Sold,,,http://www.redfin.com/CA/Carson/428-E-Double-St-90745/home/7639387,CRMLS,PV18064771,N,Y,33.8328019,-118.2692609
PAST SALE,July-13-2018,Single Family Residential,920 Sprucelake Dr,Harbor City,CA,90710,564000,4,2.75,124 - Harbor City,2082,5194,1968,561,271,,Sold,,,http://www.redfin.com/CA/Harbor-City/920-Sprucelake-Dr-90710/home/7671346,CRMLS,CV18132772,N,Y,33.8072004,-118.2911457
PAST SALE,July-6-2018,Single Family Residential,140 E 227th St,Carson,CA,90745,575000,4,2.0,South Carson,1615,4903,1956,568,356,,Sold,,,http://www.redfin.com/CA/Carson/140-E-227th-St-90745/home/7638216,TheMLS,18-341848,N,Y,33.8197111,-118.2739948
PAST SALE,July-10-2018,Single Family Residential,182 W 233rd St,Carson,CA,90745,565000,4,2.0,139 - South Carson,1778,5321,1952,564,318,,Sold,,,http://www.redfin.com/CA/Carson/182-W-233rd-St-90745/home/7657078,CRMLS,SB18101082,N,Y,33.8138835,-118.2784657
PAST SALE,August-7-2019,Single Family Residential,24414 Fries Ave,Carson,CA,90745,550000,3,2.0,699 - Not Defined,1314,5369,1960,171,419,,Sold,,,http://www.redfin.com/CA/Carson/24414-Fries-Ave-90745/home/7668711,CRMLS,DW19072166,N,Y,33.8037497,-118.2656585
PAST SALE,,Single Family Residential,20812 Margaret St,Carson,CA,90745,600000,3,3.0,,1776,3905,2004,,338,,,,,http://www.redfin.com/CA/Carson/20812-Margaret-St-90745/home/7640792,,,N,Y,33.841697,-118.2777631
PAST SALE,September-10-2019,Single Family Residential,1217 W 213th St,Torrance,CA,90502,582100,3,2.0,122 - Harbor Gateway,1215,4980,1959,137,479,,Sold,,,http://www.redfin.com/CA/Torrance/1217-W-213th-St-90502/home/7645418,CRMLS,SB19101977,N,Y,33.8353479,-118.297631
PAST SALE,August-30-2019,Single Family Residential,24828 Panama Ave,Carson,CA,90745,550000,3,2.0,139 - South Carson,1335,4850,1967,148,412,,Sold,,,http://www.redfin.com/CA/Carson/24828-Panama-Ave-90745/home/7668857,CRMLS,SB19155008,N,Y,33.7996911,-118.2679425
PAST SALE,December-13-2019,Single Family Residential,24606 Marbella Ave,Carson,CA,90745,560000,4,2.0,139 - South Carson,1616,4899,1969,43,347,,Sold,,,http://www.redfin.com/CA/Carson/24606-Marbella-Ave-90745/home/7669091,CRMLS,SB19265630,N,Y,33.8019783,-118.2703634
PAST SALE,,Single Family Residential,16205 S Visalia Ave,Carson,CA,90746,550000,5,3.0,,2102,5142,1964,,262,,,,,http://www.redfin.com/CA/Carson/16205-S-Visalia-Ave-90746/home/7340162,,,N,Y,33.8850496,-118.2604967
PAST SALE,May-30-2018,Single Family Residential,24823 Island Ave,Carson,CA,90745,580000,4,2.0,139 - South Carson,2087,5124,1964,605,278,,Sold,,,http://www.redfin.com/CA/Carson/24823-Island-Ave-90745/home/7668841,CRMLS,SB18047590,N,Y,33.7998622,-118.2675771
PAST SALE,June-6-2018,Single Family Residential,22825 Petroleum Ave,Torrance,CA,90502,571000,3,2.0,123 - County Strip,1490,5201,1953,598,383,,Sold,,,http://www.redfin.com/CA/Torrance/22825-Petroleum-Ave-90502/home/7669875,CRMLS,PW18095084,N,Y,33.8182244,-118.2933378
PAST SALE,June-8-2018,Single Family Residential,135 E 227th St,Carson,CA,90745,570000,3,1.75,136 - Central Carson,1511,5012,1956,596,377,,Sold,,,http://www.redfin.com/CA/Carson/135-E-227th-St-90745/home/7638203,CRMLS,SB18112801,N,Y,33.8201016,-118.2743602
PAST SALE,July-2-2018,Single Family Residential,21819 Neptune Ave,Carson,CA,90745,575000,4,2.25,136 - Central Carson,1550,6580,1954,572,371,,Sold,,,http://www.redfin.com/CA/Carson/21819-Neptune-Ave-90745/home/7639922,CRMLS,SB18110681,N,Y,33.8297288,-118.2704091
PAST SALE,June-15-2018,Single Family Residential,135 W 226th Pl,Carson,CA,90745,575000,4,2.0,136 - Central Carson,1415,5402,1956,589,406,,Sold,,,http://www.redfin.com/CA/Carson/135-W-226th-Pl-90745/home/7642659,CRMLS,SB18020288,N,Y,33.8208436,-118.2769409
PAST SALE,November-1-2018,Single Family Residential,420 W 214th St,Carson,CA,90745,590000,3,1.0,136 - Central Carson,1428,9298,1948,450,413,,Sold,,,http://www.redfin.com/CA/Carson/420-W-214th-St-90745/home/7643548,CRMLS,SB18240412,N,Y,33.834046,-118.2837694
PAST SALE,February-28-2018,Single Family Residential,617 W 231st St,Carson,CA,90745,599000,5,3.0,139 - South Carson,2029,5359,1955,696,295,,Sold,,,http://www.redfin.com/CA/Carson/617-W-231st-St-90745/home/7656535,CRMLS,IN17246654,N,Y,33.8169902,-118.2862836
PAST SALE,August-9-2018,Single Family Residential,20518 Catalina St,Torrance,CA,90502,587000,3,2.0,County Strip,1210,6120,1942,534,485,,Sold,,,http://www.redfin.com/CA/Torrance/20518-Catalina-St-90502/home/7649405,TheMLS,18-348322,N,Y,33.8441099,-118.2936462
PAST SALE,November-1-2018,Single Family Residential,966 E Turmont St,Carson,CA,90746,590000,3,2.0,137 - North Carson,1665,5526,1964,450,354,,Sold,,,http://www.redfin.com/CA/Carson/966-E-Turmont-St-90746/home/7665909,CRMLS,CV18223173,N,Y,33.8527716,-118.2559743
PAST SALE,April-20-2018,Single Family Residential,627 E Turmont St,Carson,CA,90746,575000,4,2.0,137 - North Carson,1532,5727,1968,645,375,,Sold,,,http://www.redfin.com/CA/Carson/627-E-Turmont-St-90746/home/7631990,CRMLS,PW18067006,N,Y,33.8497976,-118.2640513
PAST SALE,November-16-2018,Single Family Residential,22633 Marine Ave,Carson,CA,90745,550000,3,1.75,139 - South Carson,1283,5447,1955,435,429,,Sold,,,http://www.redfin.com/CA/Carson/22633-Marine-Ave-90745/home/7638760,CRMLS,SB18234579,N,Y,33.8202834,-118.2648363
PAST SALE,October-12-2018,Single Family Residential,347 E Double St,Carson,CA,90745,550000,3,2.0,136 - Central Carson,1360,8130,1961,470,404,,Sold,,,http://www.redfin.com/CA/Carson/347-E-Double-St-90745/home/7639404,CRMLS,PV18138524,N,Y,33.8332682,-118.2708073
PAST SALE,August-2-2018,Single Family Residential,21307 Island Ave,Carson,CA,90745,580000,3,2.0,136 - Central Carson,1350,4851,1964,541,430,,Sold,,,http://www.redfin.com/CA/Carson/21307-Island-Ave-90745/home/7640973,CRMLS,OC18070767,N,Y,33.8350688,-118.2674857
PAST SALE,September-7-2018,Single Family Residential,24426 Island Ave,Carson,CA,90745,578000,3,2.0,699 - Not Defined,1656,6004,1964,505,349,,Sold,,,http://www.redfin.com/CA/Carson/24426-Island-Ave-90745/home/7668901,CRMLS,DW18139964,N,Y,33.8037043,-118.2670518
PAST SALE,July-9-2018,Single Family Residential,24608 Panama Ave,Carson,CA,90745,575000,3,2.0,139 - South Carson,1335,4738,1967,565,431,,Sold,,,http://www.redfin.com/CA/Carson/24608-Panama-Ave-90745/home/7668928,CRMLS,PW18094199,N,Y,33.8020184,-118.2679425
PAST SALE,October-31-2018,Single Family Residential,1152 E 222nd St,Carson,CA,90745,550000,4,2.0,136 - Central Carson,1747,3319,1964,451,315,,Sold,,,http://www.redfin.com/CA/Carson/1152-E-222nd-St-90745/home/7637717,CRMLS,SB18216167,N,Y,33.8252476,-118.2530963
PAST SALE,August-24-2018,Single Family Residential,20118 Nestor Ave,Carson,CA,90746,595000,4,2.0,138 - Rancho Dominguez,1612,5364,1969,519,369,,Sold,,,http://www.redfin.com/CA/Carson/20118-Nestor-Ave-90746/home/7665374,CRMLS,SB18166589,N,Y,33.8489403,-118.2442793
PAST SALE,,Single Family Residential,21210 Grace Ave,Carson,CA,90745,600000,3,1.0,,1225,10163,1949,,490,,,,,http://www.redfin.com/CA/Carson/21210-Grace-Ave-90745/home/7640886,,,N,Y,33.8364159,-118.2677141
PAST SALE,August-28-2019,Single Family Residential,1225 E Jay St,Carson,CA,90745,565000,4,3.0,136 - Central Carson,1991,7620,1980,150,284,,Sold,,,http://www.redfin.com/CA/Carson/1225-E-Jay-St-90745/home/7637589,CRISNet,SR19155312,N,Y,33.826878,-118.2518629
PAST SALE,October-30-2019,Single Family Residential,1842 E Turmont St,Carson,CA,90746,552500,3,3.0,138 - Rancho Dominguez,2206,5363,1963,87,250,,Sold,,,http://www.redfin.com/CA/Carson/1842-E-Turmont-St-90746/home/7631682,CRMLS,SB19230925,N,Y,33.8534221,-118.23617
PAST SALE,January-16-2020,Single Family Residential,1633 E 213th St,Carson,CA,90745,575000,3,2.0,136 - Central Carson,1405,5552,1963,9,409,,Sold,,,http://www.redfin.com/CA/Carson/1633-E-213th-St-90745/home/7633973,CRMLS,SB19214017,N,Y,33.8356822,-118.2429088
PAST SALE,January-9-2020,Single Family Residential,1065 W 209th St,Torrance,CA,90502,570000,3,1.0,123 - County Strip,963,5113,1953,16,592,,Sold,,,http://www.redfin.com/CA/Torrance/1065-W-209th-St-90502/home/7647851,CRMLS,PW19258939,N,Y,33.8407959,-118.294434
PAST SALE,October-29-2019,Single Family Residential,1052 E Gladwick St,Carson,CA,90746,588000,4,2.0,136 - Central Carson,1504,4634,1968,88,391,,Sold,,,http://www.redfin.com/CA/Carson/1052-E-Gladwick-St-90746/home/7666021,CRMLS,CV19185519,N,Y,33.8519932,-118.2537815
PAST SALE,June-13-2019,Single Family Residential,204 E Javelin St,Carson,CA,90745,550000,3,2.0,136 - Central Carson,1582,4958,1962,226,348,,Sold,,,http://www.redfin.com/CA/Carson/204-E-Javelin-St-90745/home/7639002,CRMLS,SB19105831,N,Y,33.838558,-118.2753879
PAST SALE,May-17-2019,Single Family Residential,20803 Brody Ave,Torrance,CA,90502,565000,3,2.0,123 - County Strip,1381,5205,1960,253,409,,Sold,,,http://www.redfin.com/CA/Torrance/20803-Brody-Ave-90502/home/7647470,CRMLS,OC19065056,N,Y,33.8418157,-118.2914654
PAST SALE,August-2-2019,Single Family Residential,18225 Mettler Ave,Carson,CA,90746,600000,4,2.0,137 - North Carson,1386,5182,1953,176,433,,Sold,,,http://www.redfin.com/CA/Carson/18225-Mettler-Ave-90746/home/7641289,CRMLS,DW19124236,N,Y,33.8645029,-118.2674172
PAST SALE,October-24-2018,Single Family Residential,850 E Penrod Dr,Carson,CA,90746,595000,4,3.0,North Carson,2208,4875,1978,458,269,,Sold,,,http://www.redfin.com/CA/Carson/850-E-Penrod-Dr-90746/home/7630694,TheMLS,18-361872,N,Y,33.8683732,-118.2593547
PAST SALE,August-21-2018,Single Family Residential,19438 Hillford Ave,Carson,CA,90746,585000,4,2.75,137 - North Carson,1679,5749,1965,522,348,,Sold,,,http://www.redfin.com/CA/Carson/19438-Hillford-Ave-90746/home/7633127,CRMLS,PW18053385,N,Y,33.8535492,-118.2451016
PAST SALE,August-27-2018,Single Family Residential,19432 Hillford Ave,Carson,CA,90746,598500,4,2.0,North Carson,1545,5522,1965,516,387,,Sold,,,http://www.redfin.com/CA/Carson/19432-Hillford-Ave-90746/home/7633128,TheMLS,18-366704,N,Y,33.8536695,-118.2451016
PAST SALE,November-15-2018,Single Family Residential,20133 Gunlock Ave,Carson,CA,90746,599900,3,2.0,137 - North Carson,1618,5153,1965,436,371,,Sold,,,http://www.redfin.com/CA/Carson/20133-Gunlock-Ave-90746/home/7633813,CRMLS,WS18245188,N,Y,33.848981,-118.2373351
PAST SALE,June-8-2018,Single Family Residential,20213 Campaign Dr,Carson,CA,90746,555000,4,1.75,137 - North Carson,1612,4684,1968,596,344,,Sold,,,http://www.redfin.com/CA/Carson/20213-Campaign-Dr-90746/home/7666271,CRMLS,SB18063779,N,Y,33.8484368,-118.2571163
PAST SALE,November-29-2018,Single Family Residential,20853 Doble Ave,Torrance,CA,90502,575000,3,1.75,123 - County Strip,1172,4988,1960,422,491,,Sold,,,http://www.redfin.com/CA/Torrance/20853-Doble-Ave-90502/home/7647455,CRMLS,PV18253101,N,Y,33.8399818,-118.2911
PAST SALE,May-25-2018,Single Family Residential,1731 E 213th St,Carson,CA,90745,579000,4,2.25,136 - Central Carson,1731,5438,1963,610,334,,Sold,,,http://www.redfin.com/CA/Carson/1731-E-213th-St-90745/home/7633958,CRMLS,PW18051111,N,Y,33.835673,-118.2414925
PAST SALE,May-15-2018,Single Family Residential,21325 Moneta Ave,Carson,CA,90745,570000,3,2.0,136 - Central Carson,1167,5233,1947,620,488,,Sold,,,http://www.redfin.com/CA/Carson/21325-Moneta-Ave-90745/home/7643350,CRMLS,SB18070987,N,Y,33.8349275,-118.2819196
PAST SALE,June-14-2018,Single Family Residential,21231 Water St,Carson,CA,90745,600000,4,2.0,136 - Central Carson,1800,5482,2003,590,333,,Sold,,,http://www.redfin.com/CA/Carson/21231-Water-St-90745/home/7633955,CRMLS,SB18069655,N,Y,33.8358614,-118.2412184
PAST SALE,December-4-2018,Single Family Residential,21506 Lostine Ave,Carson,CA,90745,565000,4,2.0,136 - Central Carson,1344,5473,1963,417,420,,Sold,,,http://www.redfin.com/CA/Carson/21506-Lostine-Ave-90745/home/7634243,CRMLS,SB18217022,N,Y,33.8333965,-118.2456499
PAST SALE,June-13-2018,Single Family Residential,331 E Desford St,Carson,CA,90745,575000,4,2.0,136 - Central Carson,1518,4934,1962,591,379,,Sold,,,http://www.redfin.com/CA/Carson/331-E-Desford-St-90745/home/7639694,CRMLS,SB18083653,N,Y,33.8340382,-118.2705005
PAST SALE,November-15-2018,Single Family Residential,802 E Desford St,Carson,CA,90745,550000,3,2.0,136 - Central Carson,1369,5718,1963,436,402,,Sold,,,http://www.redfin.com/CA/Carson/802-E-Desford-St-90745/home/7640888,CRMLS,SB18154798,N,Y,33.8337315,-118.2614103
PAST SALE,August-1-2018,Single Family Residential,24522 Neptune Ave,Carson,CA,90745,550000,4,2.0,139 - South Carson,1708,4673,1967,542,322,,Sold,,,http://www.redfin.com/CA/Carson/24522-Neptune-Ave-90745/home/7669049,CRMLS,PW18127170,N,Y,33.8025438,-118.2695412
PAST SALE,August-24-2018,Single Family Residential,545 E Collamer Dr,Carson,CA,90746,595000,4,2.0,137 - North Carson,1526,5798,1963,519,390,,Sold,,,http://www.redfin.com/CA/Carson/545-E-Collamer-Dr-90746/home/7335641,CRMLS,SB18156552,N,Y,33.8748694,-118.2666863
PAST SALE,July-23-2018,Single Family Residential,345 W 218th St,Carson,CA,90745,580000,3,2.0,136 - Central Carson,1315,5419,1957,551,441,,Sold,,,http://www.redfin.com/CA/Carson/345-W-218th-St-90745/home/7643763,CRMLS,RS18144460,N,Y,33.8306271,-118.2832441
PAST SALE,,Single Family Residential,1242 Levinson St,Torrance,CA,90502,555000,3,2.0,,1291,5032,1959,,430,,,,,http://www.redfin.com/CA/Torrance/1242-Levinson-St-90502/home/7646118,,,N,Y,33.8342034,-118.2983617
PAST SALE,November-22-2018,Single Family Residential,20802 S Van Deene Ave,Torrance,CA,90502,560000,3,2.0,123 - County Strip,1177,5739,1961,429,476,,Sold,,,http://www.redfin.com/CA/Torrance/20802-S-Van-Deene-Ave-90502/home/7647323,CRMLS,SB18128134,N,Y,33.8418791,-118.2886337
PAST SALE,February-5-2019,Single Family Residential,21313 Fries Ave,Carson,CA,90745,590000,4,1.75,136 - Central Carson,1530,5095,1964,354,386,,Sold,,,http://www.redfin.com/CA/Carson/21313-Fries-Ave-90745/home/7640984,CRMLS,DW18293363,N,Y,33.8349581,-118.2666877
PAST SALE,March-14-2019,Single Family Residential,20907 Doble Ave,Torrance,CA,90502,577500,3,2.0,123 - County Strip,1295,5063,1960,317,446,,Sold,,,http://www.redfin.com/CA/Torrance/20907-Doble-Ave-90502/home/7647435,CRMLS,SB19028666,N,Y,33.8397411,-118.2911
PAST SALE,March-8-2019,Single Family Residential,1128 W 210th St,Torrance,CA,90502,555000,3,2.0,123 - County Strip,992,4970,1953,323,559,,Sold,,,http://www.redfin.com/CA/Torrance/1128-W-210th-St-90502/home/7647771,CRMLS,SB19021868,N,Y,33.8390397,-118.2958498
PAST SALE,March-12-2019,Single Family Residential,24603 Marbella Ave,Carson,CA,90745,585000,3,2.0,139 - South Carson,1348,4915,1969,319,434,,Sold,,,http://www.redfin.com/CA/Carson/24603-Marbella-Ave-90745/home/7669176,CRMLS,BB19006238,N,Y,33.8020941,-118.2708659
PAST SALE,March-28-2019,Single Family Residential,376 E 229th St,Carson,CA,90745,599000,3,1.5,South Carson,1380,5617,1951,303,434,,Sold,,,http://www.redfin.com/CA/Carson/376-E-229th-St-90745/home/7635778,PFAR,818005479,N,Y,33.8182175,-118.2686277
PAST SALE,September-25-2018,Single Family Residential,23453 Caroldale Ave,Carson,CA,90745,570000,4,2.0,139 - South Carson,2430,11448,1952,487,235,,Sold,,,http://www.redfin.com/CA/Carson/23453-Caroldale-Ave-90745/home/7637357,CRMLS,SB18117156,N,Y,33.8117155,-118.2845006
PAST SALE,August-10-2018,Single Family Residential,21834 Nicolle Ave,Carson,CA,90745,575000,5,5.0,136 - Central Carson,2791,5539,1957,533,206,,Sold,,,http://www.redfin.com/CA/Carson/21834-Nicolle-Ave-90745/home/7643679,CRMLS,PV18159069,N,Y,33.8294987,-118.2806863
PAST SALE,September-18-2018,Single Family Residential,22332 Marigold Ave,Torrance,CA,90502,580000,3,2.0,123 - County Strip,1470,5771,1959,494,395,,Sold,,,http://www.redfin.com/CA/Torrance/22332-Marigold-Ave-90502/home/7644626,CRMLS,PW18160035,N,Y,33.8234847,-118.2953477
PAST SALE,September-19-2018,Single Family Residential,1121 W 225th St,Torrance,CA,90502,599000,3,2.0,123 - County Strip,1616,7063,1964,493,371,,Sold,,,http://www.redfin.com/CA/Torrance/1121-W-225th-St-90502/home/7644664,CRMLS,PV18135156,N,Y,33.8224192,-118.295439
PAST SALE,March-27-2019,Single Family Residential,575 E Cheriton Dr,Carson,CA,90746,550000,4,2.0,137 - North Carson,2018,6401,1964,304,273,,Sold,,,http://www.redfin.com/CA/Carson/575-E-Cheriton-Dr-90746/home/7335626,CRMLS,SB18242023,N,Y,33.8751057,-118.2659783
PAST SALE,February-11-2019,Single Family Residential,1341 E Bankers Dr,Carson,CA,90746,589900,3,2.0,Rancho Dominguez,1422,5092,1965,348,415,,Sold,,,http://www.redfin.com/CA/Carson/1341-E-Bankers-Dr-90746/home/7633004,TheMLS,18-399472,N,Y,33.8575349,-118.2466549
PAST SALE,December-19-2019,Single Family Residential,134 W 219th Pl,Carson,CA,90745,559900,3,2.0,136 - Central Carson,1495,7142,1926,37,375,,Sold,,,http://www.redfin.com/CA/Carson/134-W-219th-Pl-90745/home/7643701,CRMLS,CV19235729,N,Y,33.8284428,-118.2785624
PAST SALE,September-12-2018,Single Family Residential,638 E Elsmere Dr,Carson,CA,90746,550000,3,2.0,137 - North Carson,1657,6052,1964,500,332,,Sold,,,http://www.redfin.com/CA/Carson/638-E-Elsmere-Dr-90746/home/7632040,CRMLS,SB18190776,N,Y,33.8534419,-118.2639227
PAST SALE,December-7-2018,Single Family Residential,19203 Reinhart Ave,Carson,CA,90746,582000,4,1.75,137 - North Carson,1856,6574,1960,414,314,,Sold,,,http://www.redfin.com/CA/Carson/19203-Reinhart-Ave-90746/home/7632185,CRMLS,SB18258792,N,Y,33.8566289,-118.2646536
PAST SALE,June-29-2018,Single Family Residential,1212 Clarion Dr,Torrance,CA,90502,585000,3,1.75,123 - County Strip,1543,5008,1959,575,379,,Sold,,,http://www.redfin.com/CA/Torrance/1212-W-Clarion-Dr-90502/home/7645444,CRMLS,SB18109982,N,Y,33.8358926,-118.2978594
PAST SALE,August-9-2018,Single Family Residential,20203 Campaign Dr,Carson,CA,90746,560000,4,2.0,137 - North Carson,1612,4698,1968,534,347,,Sold,,,http://www.redfin.com/CA/Carson/20203-Campaign-Dr-90746/home/7666273,CRMLS,PW18124644,N,Y,33.8487062,-118.257162
PAST SALE,,Condo/Co-op,1206 Hickory Dr,Carson,CA,90746,600000,4,3.0,,1815,,2000,,331,,,,,http://www.redfin.com/CA/Carson/1206-Hickory-Dr-90746/home/8104741,,,N,Y,33.8701321,-118.2513147
PAST SALE,September-18-2018,Single Family Residential,19615 Dunbrooke Ave,Carson,CA,90746,550000,4,2.0,137 - North Carson,1813,5813,1964,494,303,,Sold,,,http://www.redfin.com/CA/Carson/19615-Dunbrooke-Ave-90746/home/7632024,CRMLS,SB18163491,N,Y,33.8528371,-118.2650647
PAST SALE,July-18-2018,Single Family Residential,334 W 228th St,Carson,CA,90745,585000,3,2.0,136 - Central Carson,1316,5040,1968,556,445,,Sold,,,http://www.redfin.com/CA/Carson/334-W-228th-St-90745/home/7656731,CRMLS,PW18147931,N,Y,33.8186982,-118.2829878
PAST SALE,January-4-2019,Single Family Residential,24702 Panama Ave,Carson,CA,90745,580000,3,3.0,139 - South Carson,1907,4679,1967,386,304,,Sold,,,http://www.redfin.com/CA/Carson/24702-Panama-Ave-90745/home/7668924,CRMLS,SB18276592,N,Y,33.801468,-118.2678968
PAST SALE,June-15-2018,Single Family Residential,1132 Levinson St,Los Angeles,CA,90502,557000,5,2.0,Los Angeles,,87120,1959,589,,,Sold,,,http://www.redfin.com/CA/Torrance/1132-Levinson-St-90502/home/7645978,GEMLS,21803605,N,Y,33.8347199,-118.2958042
PAST SALE,June-19-2018,Single Family Residential,726 Greenhedge St,Torrance,CA,90502,591000,3,2.0,123 - County Strip,1382,5117,1961,585,428,,Sold,,,http://www.redfin.com/CA/Torrance/726-Greenhedge-St-90502/home/7647298,CRMLS,SB18122641,N,Y,33.8411901,-118.2878572
PAST SALE,,Single Family Residential,337 E 244th St,Carson,CA,90745,600000,4,2.0,,1616,4716,1968,,371,,,,,http://www.redfin.com/CA/Carson/337-E-244th-St-90745/home/7669154,,,N,Y,33.8042949,-118.2695184
PAST SALE,May-2-2018,Single Family Residential,1218 W 213th St,Torrance,CA,90502,580000,3,1.75,123 - County Strip,1291,5428,1959,633,449,,Sold,,,http://www.redfin.com/CA/Torrance/1218-W-213th-St-90502/home/7646155,CRMLS,SB18071488,N,Y,33.8348954,-118.2976767
PAST SALE,August-3-2018,Single Family Residential,20812 Conradi Ave,Torrance,CA,90502,587000,3,2.0,123 - County Strip,1169,5109,1961,540,502,,Sold,,,http://www.redfin.com/CA/Torrance/20812-Conradi-Ave-90502/home/7647315,CRMLS,TR18142814,N,Y,33.841551,-118.2878572
PAST SALE,,Single Family Residential,19110 Campaign Dr,Carson,CA,90746,580000,4,2.0,,1739,6989,1960,,334,,,,,http://www.redfin.com/CA/Carson/19110-Campaign-Dr-90746/home/7632390,,,N,Y,33.8572931,-118.2590806
PAST SALE,May-16-2019,Single Family Residential,918 E Turmont St,Carson,CA,90746,560000,3,2.0,137 - North Carson,1432,5556,1964,254,391,,Sold,,,http://www.redfin.com/CA/Carson/918-E-Turmont-St-90746/home/7665834,CRMLS,DW18286830,N,Y,33.8521675,-118.2574361
PAST SALE,December-6-2018,Single Family Residential,20120 Galway Ave,Carson,CA,90746,555000,3,2.0,138 - Rancho Dominguez,1806,4988,1967,415,307,,Sold,,,http://www.redfin.com/CA/Carson/20120-Galway-Ave-90746/home/7666094,CRMLS,DW18077027,N,Y,33.8491808,-118.2606566
PAST SALE,June-29-2018,Single Family Residential,221 W 226th Pl,Carson,CA,90745,570000,3,2.0,136 - Central Carson,1212,5568,1956,575,470,,Sold,,,http://www.redfin.com/CA/Carson/221-W-226th-Pl-90745/home/7642672,CRMLS,SB18114696,N,Y,33.8208371,-118.2792247
PAST SALE,,Single Family Residential,438 W 229th St,Carson,CA,90745,564000,3,2.0,,2084,9693,1957,,271,,,,,http://www.redfin.com/CA/Carson/438-W-229th-St-90745/home/7656699,,,N,Y,33.818072,-118.2851152
PAST SALE,June-5-2018,Single Family Residential,543 E 169th St,Carson,CA,90746,594000,4,2.0,137 - North Carson,1561,5504,1963,599,381,,Sold,,,http://www.redfin.com/CA/Carson/543-E-169th-St-90746/home/7335076,CRMLS,DW18093875,N,Y,33.879327,-118.2659326
PAST SALE,March-27-2018,Single Family Residential,318 E Clarion Dr,Carson,CA,90745,583000,3,2.0,136 - Central Carson,1340,4777,1962,669,435,,Sold,,,http://www.redfin.com/CA/Carson/318-E-Clarion-Dr-90745/home/7639224,CRMLS,RS18033858,N,Y,33.8357884,-118.2716881
PAST SALE,August-3-2018,Single Family Residential,21017 Catskill Ave,Carson,CA,90745,569000,3,2.0,136 - Central Carson,1367,5552,1963,540,416,,Sold,,,http://www.redfin.com/CA/Carson/21017-Catskill-Ave-90745/home/7639079,CRMLS,SB18143363,N,Y,33.8382926,-118.2717794
PAST SALE,,Single Family Residential,333 E 211th St,Carson,CA,90745,590000,3,2.0,,1340,5249,1962,,440,,,,,http://www.redfin.com/CA/Carson/333-E-211th-St-90745/home/7639095,,,N,Y,33.8379476,-118.2712313
PAST SALE,August-18-2019,Single Family Residential,23213 Orchard Ave,Carson,CA,90745,580000,3,2.0,699 - Not Defined,1285,5088,1960,160,451,,Sold,,,http://www.redfin.com/CA/Carson/23213-Orchard-Ave-90745/home/7656600,CRMLS,DW19135514,N,Y,33.8149244,-118.2867846
PAST SALE,November-22-2019,Single Family Residential,19409 Tillman Ave,Carson,CA,90746,580000,3,2.0,137 - North Carson,1276,6200,1961,64,455,,Sold,,,http://www.redfin.com/CA/Carson/19409-Tillman-Ave-90746/home/7632776,CRMLS,SB19249851,N,Y,33.8548302,-118.254147
PAST SALE,,Single Family Residential,23018 Archibald Ave,Carson,CA,90745,580000,3,2.0,,1503,4633,1968,,386,,,,,http://www.redfin.com/CA/Carson/23018-Archibald-Ave-90745/home/7656800,,,N,Y,33.8170119,-118.2826115
PAST SALE,April-10-2019,Single Family Residential,20018 Pricetown Ave,Carson,CA,90746,560000,4,2.0,Rancho Dominguez,1718,5068,1971,290,326,,Sold,,,http://www.redfin.com/CA/Carson/20018-Pricetown-Ave-90746/home/7665536,TheMLS,19-431620,N,Y,33.8497734,-118.2477057
PAST SALE,March-19-2019,Single Family Residential,23129 Caroldale Ave,Carson,CA,90745,585000,3,1.5,Boulevard,1236,,1957,312,473,,Sold,,,http://www.redfin.com/CA/Carson/23129-Caroldale-Ave-90745/home/7656622,SDMLS,190006600,N,Y,33.8160954,-118.2838721
PAST SALE,January-8-2019,Single Family Residential,902 E 163rd St,Carson,CA,90746,588000,4,2.0,137 - North Carson,1494,5196,1957,382,394,,Sold,,,http://www.redfin.com/CA/Carson/902-E-163rd-St-90746/home/7340236,CRMLS,PW18243962,N,Y,33.8843936,-118.2589436
PAST SALE,May-24-2018,Single Family Residential,926 E 163rd St,Carson,CA,90746,576000,4,3.0,North Carson,1728,4910,1957,611,333,,Sold,,,http://www.redfin.com/CA/Carson/926-E-163rd-St-90746/home/7340241,TheMLS,18-331178,N,Y,33.8844666,-118.258167
PAST SALE,,Single Family Residential,310 E 231st St,Carson,CA,90745,550000,3,1.0,,1444,6045,1947,,381,,,,,http://www.redfin.com/CA/Carson/310-E-231st-St-90745/home/7636079,,,N,Y,33.8156717,-118.2706375
PAST SALE,June-3-2019,Single Family Residential,328 E 214th St,Carson,CA,90745,578000,4,2.0,136 - Central Carson,1518,5004,1962,236,381,,Sold,,,http://www.redfin.com/CA/Carson/328-E-214th-St-90745/home/7639703,CRISNet,SR19077314,N,Y,33.8342387,-118.2705005
PAST SALE,January-4-2019,Single Family Residential,22249 Marbella Ave,Carson,CA,90745,582000,3,2.0,136 - Central Carson,1154,5419,1957,386,504,,Sold,,,http://www.redfin.com/CA/Carson/22249-Marbella-Ave-90745/home/7640444,CRMLS,DW18285867,N,Y,33.8244148,-118.2708887
PAST SALE,January-11-2019,Single Family Residential,24002 Fernlake Dr,Harbor City,CA,90710,580000,3,2.0,Harbor City,1646,4920,1968,379,352,,Sold,,,http://www.redfin.com/CA/Harbor-City/24002-Fernlake-Dr-90710/home/7671372,TheMLS,18-413352,N,Y,33.8071282,-118.2922418
PAST SALE,May-4-2018,Single Family Residential,18335 Wall St,Carson,CA,90746,599900,4,2.0,137 - North Carson,1624,5275,1953,631,369,,Sold,,,http://www.redfin.com/CA/Carson/18335-Wall-St-90746/home/7641857,CRMLS,SB18037008,N,Y,33.8632879,-118.271414
PAST SALE,September-21-2018,Single Family Residential,820 E Meadbrook St,Carson,CA,90746,593000,3,3.0,137 - North Carson,1975,3566,1968,491,300,,Sold,,,http://www.redfin.com/CA/Carson/820-E-Meadbrook-St-90746/home/7630669,CRMLS,SB18163323,N,Y,33.8690849,-118.2600399
PAST SALE,September-27-2018,Single Family Residential,19210 Dunbrooke Ave,Carson,CA,90746,560000,3,2.0,137 - North Carson,1401,5957,1960,485,400,,Sold,,,http://www.redfin.com/CA/Carson/19210-Dunbrooke-Ave-90746/home/7632150,CRMLS,PW18138915,N,Y,33.8565092,-118.2649733
PAST SALE,January-25-2019,Single Family Residential,22912 Doble Ave,Torrance,CA,90502,580000,4,2.0,123 - County Strip,1340,4924,1953,365,433,,Sold,,,http://www.redfin.com/CA/Torrance/22912-Doble-Ave-90502/home/7669808,CRMLS,SB18278965,N,Y,33.8178308,-118.2911457
PAST SALE,September-20-2018,Single Family Residential,17502 Bauchard Ct,Carson,CA,90746,578000,5,2.5,138 - Rancho Dominguez,1568,3960,1966,492,369,,Sold,,,http://www.redfin.com/CA/Carson/17502-Bauchard-Ct-90746/home/7630442,CRISNet,SR18188832,N,Y,33.8721044,-118.2548322
PAST SALE,April-30-2019,Single Family Residential,24712 Ravenna Ave,Carson,CA,90745,555000,3,1.75,139 - South Carson,1291,4632,1967,270,430,,Sold,,,http://www.redfin.com/CA/Carson/24712-Ravenna-Ave-90745/home/7668975,CRMLS,PW19056751,N,Y,33.8011833,-118.268719
PAST SALE,December-28-2018,Single Family Residential,24523 Marbella Ave,Carson,CA,90745,599500,3,2.0,139 - South Carson,1616,4977,1969,393,371,,Sold,,,http://www.redfin.com/CA/Carson/24523-Marbella-Ave-90745/home/7669171,CRMLS,SB18259322,N,Y,33.8025097,-118.2708887
PAST SALE,August-19-2019,Single Family Residential,141 W 232nd Pl,Carson,CA,90745,595000,3,1.0,139 - South Carson,1482,5708,1952,159,401,,Sold,,,http://www.redfin.com/CA/Carson/141-W-232nd-Pl-90745/home/7657150,CRMLS,PW19152784,N,Y,33.8150456,-118.2770972
PAST SALE,September-24-2019,Single Family Residential,419 W 234th Pl,Carson,CA,90745,558000,4,1.5,139 - South Carson,1341,5590,1952,123,416,,Sold,,,http://www.redfin.com/CA/Carson/419-W-234th-Pl-90745/home/7637241,CRMLS,SB19177854,N,Y,33.8129065,-118.2832705
PAST SALE,December-20-2018,Single Family Residential,19322 Dunbrooke Ave,Carson,CA,90746,583000,4,2.0,137 - North Carson,2054,6021,1960,401,284,,Sold,,,http://www.redfin.com/CA/Carson/19322-Dunbrooke-Ave-90746/home/7632156,CRMLS,IN18187782,N,Y,33.8554605,-118.2648363
PAST SALE,August-3-2018,Single Family Residential,21314 Berendo Ave,Torrance,CA,90502,590000,3,1.75,123 - County Strip,1215,5337,1959,540,486,,Sold,,,http://www.redfin.com/CA/Torrance/21314-Berendo-Ave-90502/home/7645824,CRMLS,SB18154773,N,Y,33.8346923,-118.2933379
PAST SALE,,Single Family Residential,1238 W 213th St,Torrance,CA,90502,573000,3,2.0,,1295,5234,1959,,442,,,,,http://www.redfin.com/CA/Torrance/1238-W-213th-St-90502/home/7646159,,,N,Y,33.8348852,-118.2983617
PAST SALE,January-30-2019,Single Family Residential,1012 W 209th St,Torrance,CA,90502,572000,3,1.5,County Strip,1027,6513,1953,360,557,,Sold,,,http://www.redfin.com/CA/Torrance/1012-W-209th-St-90502/home/7647506,TheMLS,18-382248,N,Y,33.8405977,-118.2926528
PAST SALE,September-12-2019,Single Family Residential,18302 Milmore Ave,Carson,CA,90746,555000,5,3.0,137 - North Carson,2358,5149,1964,135,235,,Sold,,,http://www.redfin.com/CA/Carson/18302-Milmore-Ave-90746/home/7641051,CRMLS,RS19156181,N,Y,33.864457,-118.2746114
PAST SALE,May-30-2019,Single Family Residential,1803 E Cyrene Dr,Carson,CA,90746,585000,3,2.0,,1362,5137,1965,240,430,,Sold,,,http://www.redfin.com/CA/Carson/E-Cyrene-Dr-90746/home/7633396,SDMLS,190022464,N,Y,33.8482575,-118.2379061
PAST SALE,July-30-2018,Single Family Residential,23550 Figueroa St,Carson,CA,90745,575000,4,2.0,139 - South Carson,1812,4814,1971,544,317,,Sold,,,http://www.redfin.com/CA/Carson/23550-S-Figueroa-St-90745/home/7637365,CRMLS,RS18038157,N,Y,33.8106428,-118.2848884
PAST SALE,August-16-2019,Single Family Residential,19107 Gunlock Ave,Carson,CA,90746,598000,4,2.0,North Carson,1430,5153,1963,162,418,,Sold,,,http://www.redfin.com/CA/Carson/19107-Gunlock-Ave-90746/home/7631182,TheMLS,19-480498,N,Y,33.8570911,-118.2381117
PAST SALE,,Single Family Residential,1042 W 212th St,Torrance,CA,90502,560000,2,1.0,,875,5118,1954,,640,,,,,http://www.redfin.com/CA/Torrance/1042-W-212th-St-90502/home/7647642,,,N,Y,33.8371004,-118.294297
PAST SALE,August-9-2019,Single Family Residential,500 W 232nd,Carson,CA,90745,558000,3,1.75,136 - Central Carson,1280,8402,1957,169,436,,Sold,,,http://www.redfin.com/CA/Carson/500-W-232nd-St-90745/home/7656614,CRMLS,OC19112624,N,Y,33.8155907,-118.2844071
PAST SALE,September-6-2019,Single Family Residential,23429 Dolores St,Carson,CA,90745,550000,3,1.0,699 - Not Defined,1034,5176,1951,141,532,,Sold,,,http://www.redfin.com/CA/Carson/23429-Dolores-St-90745/home/7635475,CRISNet,SR19174369,N,Y,33.8123523,-118.272693
PAST SALE,October-1-2019,Single Family Residential,21328 Island Ave,Carson,CA,90745,575000,3,2.0,136 - Central Carson,1350,4692,1964,116,426,,Sold,,,http://www.redfin.com/CA/Carson/21328-Island-Ave-90745/home/7640980,CRMLS,OC19191998,N,Y,33.8345289,-118.2669618
PAST SALE,October-31-2019,Single Family Residential,443 E 231st St,Carson,CA,90745,580000,3,1.0,139 - South Carson,1127,7037,1947,86,515,,Sold,,,http://www.redfin.com/CA/Carson/443-E-231st-St-90745/home/7635850,CRMLS,SB19208963,N,Y,33.8162359,-118.2667548
PAST SALE,October-31-2019,Single Family Residential,1051 Greenhedge St,Torrance,CA,90502,575000,3,1.0,123 - County Strip,860,5406,1953,86,669,,Sold,,,http://www.redfin.com/CA/Torrance/1051-Greenhedge-St-90502/home/7647885,CRMLS,SB19193960,N,Y,33.8414596,-118.294023
PAST SALE,December-4-2019,Single Family Residential,266 E 213th St,Carson,CA,90745,550000,3,2.0,136 - Central Carson,1500,6000,1967,52,367,,Sold,,,http://www.redfin.com/CA/Carson/266-E-213th-St-90745/home/7639606,CRMLS,OC19250989,N,Y,33.8351387,-118.2733325
PAST SALE,January-10-2020,Single Family Residential,1823 E Abila St,Carson,CA,90745,580000,5,3.0,136 - Central Carson,2354,6951,1973,15,246,,Sold,,,http://www.redfin.com/CA/Carson/1823-E-Abila-St-90745/home/7635226,i-Tech MLS,319004927,N,Y,33.8296943,-118.2405976
PAST SALE,December-30-2019,Single Family Residential,22433 Grace Ave,Carson,CA,90745,565000,4,2.0,136 - Central Carson,1332,4993,1952,26,424,,Sold,,,http://www.redfin.com/CA/Carson/22433-Grace-Ave-90745/home/7638521,CRMLS,PW19267304,N,Y,33.8223458,-118.2682394
PAST SALE,December-19-2019,Single Family Residential,236 E 222nd St,Carson,CA,90745,599000,4,3.0,Central Carson,1798,5070,1976,37,333,,Sold,,,http://www.redfin.com/CA/Carson/236-E-222nd-St-90745/home/7640604,TheMLS,19-515586,N,Y,33.8251871,-118.2729093
PAST SALE,November-26-2019,Single Family Residential,1520 E Cyrene Dr,Carson,CA,90746,565000,4,2.0,Rancho Dominguez,1718,5010,1971,60,329,,Sold,,,http://www.redfin.com/CA/Carson/1520-E-Cyrene-Dr-90746/home/7665365,TheMLS,19-490092,N,Y,33.847792,-118.245709
PAST SALE,August-31-2018,Single Family Residential,509 E 238th,Carson,CA,90745,569900,4,2.0,139 - South Carson,1430,6140,1943,512,399,,Sold,,,http://www.redfin.com/CA/Carson/509-E-238th-Pl-90745/home/7636660,CRMLS,SB17275667,N,Y,33.80899,-118.2662067
PAST SALE,June-6-2019,Single Family Residential,1238 Sultan Cir,Carson,CA,90746,590000,3,2.0,North Carson,1292,5503,1971,233,457,,Sold,,,http://www.redfin.com/CA/Carson/1238-Sultan-Cir-90746/home/7665166,TheMLS,19-449742,N,Y,33.850104,-118.2494416
PAST SALE,January-31-2019,Single Family Residential,1121 W 204th St,Torrance,CA,90502,555000,3,1.0,123 - County Strip,1224,10819,1943,359,453,,Sold,,,http://www.redfin.com/CA/Torrance/1121-W-204th-St-90502/home/7649362,CRMLS,CV18293837,N,Y,33.845873,-118.2960126
PAST SALE,August-5-2019,Single Family Residential,19409 Enslow Dr,Carson,CA,90746,585000,4,2.0,138 - Rancho Dominguez,1472,6162,1960,173,397,,Sold,,,http://www.redfin.com/CA/Carson/19409-Enslow-Dr-90746/home/7632375,CRMLS,DW19005563,N,Y,33.8551805,-118.2584639
PAST SALE,April-1-2019,Single Family Residential,19420 Eddington Dr,Carson,CA,90746,579000,4,2.0,137 - North Carson,1856,6101,1960,299,312,,Sold,,,http://www.redfin.com/CA/Carson/19420-Eddington-Dr-90746/home/7632352,CRMLS,RS18275286,N,Y,33.8550456,-118.2596516
PAST SALE,April-5-2019,Single Family Residential,19229 Annalee Ave,Carson,CA,90746,565000,4,2.0,137 - North Carson,1586,6123,1961,295,356,,Sold,,,http://www.redfin.com/CA/Carson/19229-Annalee-Ave-90746/home/7632813,CRMLS,OC18294869,N,Y,33.8561349,-118.2534161
PAST SALE,,Single Family Residential,324 E Double St,Carson,CA,90745,575000,3,2.0,,1702,5527,1961,,338,,,,,http://www.redfin.com/CA/Carson/324-E-Double-St-90745/home/7639744,,,N,Y,33.8327454,-118.2715054
